{
    "type": "FeatureCollection",
    "name": "cityBuildings",
    "crs": { "type": "name", "properties": { "name": "urn:ogc:def:crs:OGC:1.3:CRS84" } },
    "features": [
    { "type": "Feature", "properties": { "name": "Roy Square", "address": "Narrow Street, Limehouse, E14", "use": "Residential", "year": 1988, "height_metres": "Unknown", "status": "Constructed", "architect": "Ian Ritchie Architects", "lat": 51.509546, "lon": -0.034248, "geometry": "POINT (-0.034248, 51.509546)" }, "geometry": { "type": "Point", "coordinates": [ -0.034248, 51.509546] } },
    { "type": "Feature", "properties": { "name": "Shadwell Basin", "address": "Glamis Road, Wapping, E1", "use": "Residential", "year": 1988, "height_metres": "Unknown", "status": "Constructed", "architect": "MacCormac Jamieson Prichard", "lat": 51.508981, "lon": -0.052911, "geometry": "POINT (-0.052911, 51.508981)" }, "geometry": { "type": "Point", "coordinates": [ -0.052911, 51.508981] } },
    { "type": "Feature", "properties": { "name": "Tobacco Dock", "address": "Pennington Street, E1", "use": "Commercial - Retail", "year": 1990, "height_metres": "Unknown", "status": "Constructed", "architect": "Terry Farrell and Company", "lat": 51.508365, "lon": -0.059610, "geometry": "POINT (-0.059610, 51.508365)" }, "geometry": { "type": "Point", "coordinates": [ -0.059610, 51.508365] } },
    { "type": "Feature", "properties": { "name": "La Lumiere", "address": "2 Pennington Street, E1", "use": "Commercial - Offices", "year": 1991, "height_metres": "Unknown", "status": "Constructed", "architect": "Rick Mather Architects", "lat": 51.508988, "lon": -0.060528, "geometry": "POINT (-0.060528, 51.508988)" }, "geometry": { "type": "Point", "coordinates": [-0.060528, 51.508988] } },
    { "type": "Feature", "properties": { "name": "One Canada Square", "address": "1 Canada Square, E14", "use": "Commercial - Mixed", "year": 1991, "height_metres": 235, "status": "Constructed", "architect": "Cesar Pelli & Associates Architects", "lat": 51.509546, "lon": -0.034248, "geometry": "POINT (-0.034248, 51.509546)" }, "geometry": { "type": "Point", "coordinates": [ -0.034248, 51.509546] } },
    { "type": "Feature", "properties": { "name": "The Landmark Pinnacle", "address": "15 Westferry Road, E14", "use": "Commercial - Mixed", "year": 2020, "height_metres": 233, "status": "Constructed", "architect": "Squire and Partners", "lat": 51.502883, "lon": -0.025630, "geometry": "POINT (-0.025630, 51.502883)" }, "geometry": { "type": "Point", "coordinates": [-0.025630, 51.502883] } },
    { "type": "Feature", "properties": { "name": "Newfoundland", "address": "Bank Street, E14", "use": "Residential + Retail", "year": 2020, "height_metres": 220, "status": "Constructed", "architect": "Horden Cherry Lee Architects Ltd", "lat": 51.505376, "lon": -0.025001, "geometry": "POINT (-0.025001, 51.505376)" }, "geometry": { "type": "Point", "coordinates": [-0.025001, 51.505376] } },
    { "type": "Feature", "properties": { "name": "8 Canada Square", "address": "8-16 Canada Square, E14", "use": "Commercial - Offices", "year": 2002, "height_metres": 200, "status": "Constructed", "architect": "Foster + Partners", "lat": 51.505485, "lon": -0.017497, "geometry": "POINT (-0.017497, 51.505485)" }, "geometry": { "type": "Point", "coordinates": [-0.017497, 51.505485] } },
    { "type": "Feature", "properties": { "name": "25 Canada Square", "address": "25 Canada Square, E14", "use": "Commercial - Offices", "year":2001, "height_metres": 200, "status": "Constructed", "architect": "Cesar Pelli & Associates Architects", "lat": 51.504167, "lon": -0.017755, "geometry": "POINT (-0.017755, 51.504167)" }, "geometry": { "type": "Point", "coordinates": [-0.017755, 51.504167] } },
    { "type": "Feature", "properties": { "name": "One Churchill Place", "address": "1 Churchill Place, E14", "use": "Commercial - Offices", "year": 2004, "height_metres": 156, "status": "Constructed", "architect": "HOK", "lat": 51.505386, "lon": -0.014064, "geometry": "POINT (-0.014064, 51.505386)" }, "geometry": { "type": "Point", "coordinates": [-0.014064, 51.505386] } },
    { "type": "Feature", "properties": { "name": "25 Bank Street", "address": "25-30 Bank Street, E14", "use": "Commercial - Offices", "year": 2003, "height_metres": 153, "status": "Constructed", "architect": "Cesar Pelli & Associates Architects", "lat": 51.503412, "lon": -0.020385, "geometry": "POINT (-0.020385 ,51.503412)" }, "geometry": { "type": "Point", "coordinates": [-0.020385 ,51.503412] } },
    { "type": "Feature", "properties": { "name": "40 Bank Street", "address": "40 Bank Street", "use": "Commercial - Offices", "year": 2003, "height_metres": 153, "status": "Constructed", "architect": "Cesar Pelli & Associates Architects", "lat": 51.502584, "lon": -0.018980, "geometry": "POINT (-0.018980, 51.502584)" }, "geometry": { "type": "Point", "coordinates": [-0.018980, 51.502584] } },
    { "type": "Feature", "properties": { "name": "10 Upper Bank Street", "address": "10 Upper Bank Street, E14", "use": "Commercial - Offices", "year": 2003, "height_metres": 151, "status": "Constructed", "architect": "Kohn Pedersen Fox Associates", "lat": 51.502976, "lon": -0.017350, "geometry": "POINT (-0.017350, 51.502976)" }, "geometry": { "type": "Point", "coordinates": [-0.017350, 51.502976] } },
    { "type": "Feature", "properties": { "name": "10 Park Drive", "address": "Water Square, E14", "use": "Residential", "year": 2020, "height_metres": 150, "status": "Constructed", "architect": "Stanton Williams", "lat": 51.502608, "lon": -0.013995, "geometry": "POINT (-0.013995, 51.502608)" }, "geometry": { "type": "Point", "coordinates": [-0.013995, 51.502608] } },
    { "type": "Feature", "properties": { "name": "One Bank Street", "address": "1 Bank Street, E14", "use": "Commercial - Offices", "year": 2019, "height_metres": 147, "status": "Constructed", "architect": "Kohn Pedersen Fox Associates", "lat": 51.503715, "lon": -0.025080, "geometry": "POINT (-0.025080, 51.503715)" }, "geometry": { "type": "Point", "coordinates": [-0.025080, 51.503715] } },
    { "type": "Feature", "properties": { "name": "The Landmark East Tower", "address": "22 Marsh Wall, E14", "use": "Residential", "year": 2010, "height_metres": 137, "status": "Constructed", "architect": "Squire and Partners", "lat": 51.502550, "lon": -0.025504, "geometry": "POINT (-0.025504, 51.502550)" }, "geometry": { "type": "Point", "coordinates": [-0.025504, 51.502550] } },
    { "type": "Feature", "properties": { "name": "25 Churchill Place", "address": "25 Churchill Place, E14", "use": "Commercial - Offices", "year": 2014, "height_metres": 130, "status": "Constructed", "architect": "Kohn Pedersen Fox Associates", "lat": 51.503784, "lon": -0.014668, "geometry": "POINT (-0.014668, 51.503784)" }, "geometry": { "type": "Point", "coordinates": [-0.014668, 51.503784] } },
    { "type": "Feature", "properties": { "name": "No.1 West India Quay", "address": "24 Hertsmere Road, E14", "use": "Residential + Hotel", "year": 2004, "height_metres": 108, "status": "Constructed", "architect": "HOK", "lat": 51.507615, "lon": -0.022356, "geometry": "POINT (-0.022356, 51.507615)" }, "geometry": { "type": "Point", "coordinates": [-0.022356, 51.507615] } },
    { "type": "Feature", "properties": { "name": "33 Canada Square", "address": "33 Canada Square", "use": "Commercial - Mixed", "year": 1999, "height_metres": 105, "status": "Constructed", "architect": "Foster + Partners", "lat": 51.504148, "lon": -0.017774, "geometry": "POINT (-0.017774, 51.504148)" }, "geometry": { "type": "Point", "coordinates": [-0.017774, 51.504148] } },
    { "type": "Feature", "properties": { "name": "The Landmark West Tower", "address": "22 Marsh Wall, E14", "use": "Residential", "year": 2010, "height_metres": 95, "status": "Constructed", "architect": "Squire and Partners", "lat": 51.502459, "lon": -0.025484, "geometry": "POINT (-0.025484, 51.502459)" }, "geometry": { "type": "Point", "coordinates": [-0.025484, 51.502459] } },
    { "type": "Feature", "properties": { "name": "One Cabot Square", "address": "1 Cabot Square, E14", "use": "Commercial - Mixed", "year": 1991, "height_metres": 89, "status": "Constructed", "architect": "Pei Cobb Freed & Partners", "lat": 51.506145, "lon": -0.023662, "geometry": "POINT (-0.023662, 51.506145)" }, "geometry": { "type": "Point", "coordinates": [-0.023662, 51.506145] } },
    { "type": "Feature", "properties": { "name": "5 Canada Square", "address": "5 Canada Square, E14", "use": "Commercial - Offices", "year": 2003, "height_metres": 88, "status": "Constructed", "architect": "Skidmore, Owings & Merrill LLP", "lat": 51.505817, "lon": -0.018540, "geometry": "POINT (-0.018540, 51.505817)" }, "geometry": { "type": "Point", "coordinates": [-0.018540, 51.505817] } },
    { "type": "Feature", "properties": { "name": "30 Harbord Square", "address": "Bay Street, E14", "use": "Residential", "year": 2021, "height_metres": 84, "status": "Constructed", "architect": "Allies and Morrison Architects", "lat": 51.502895, "lon": -0.010504, "geometry": "POINT (-0.010504, 51.502895)" }, "geometry": { "type": "Point", "coordinates": [-0.010504, 51.502895] } },
    { "type": "Feature", "properties": { "name": "25 Cabot Square", "address": "25 Cabot Square, E14", "use": "Commercial - Mixed", "year": 1991, "height_metres": 81, "status": "Constructed", "architect": "Skidmore, Owings & Merrill LLP", "lat": 51.505324, "lon": -0.023791, "geometry": "POINT (-0.023791, 51.505324)" }, "geometry": { "type": "Point", "coordinates": [-0.023791, 51.505324] } },
    { "type": "Feature", "properties": { "name": "25 The North Colonnade", "address": "25 The North Colonnade, E14", "use": "Commercial - Offices", "year": 1991, "height_metres": 80, "status": "Constructed", "architect": "John McAslan + Partners", "lat": 51.505760, "lon": -0.020123, "geometry": "POINT (-0.020123, 51.505760)" }, "geometry": { "type": "Point", "coordinates": [-0.020123, 51.505760] } },
    { "type": "Feature", "properties": { "name": "Berkeley Tower", "address": "48 Westferry Circus", "use": "Residential", "year": 1998, "height_metres": 75, "status": "Constructed", "architect": "Koetter Kim & Associates International", "lat": 51.506491, "lon": -0.027771, "geometry": "POINT (-0.027771, 51.506491)" }, "geometry": { "type": "Point", "coordinates": [-0.027771, 51.506491] } },
    { "type": "Feature", "properties": { "name": "10 Cabot Square", "address": "10 Cabot Square, E14", "use": "Commercial - Mixed", "year": 1991, "height_metres": 74, "status": "Constructed", "architect": "Skidmore, Owings & Merrill LLP", "lat": 51.505848, "lon": -0.022554, "geometry": "POINT (-0.022554, 51.505848)" }, "geometry": { "type": "Point", "coordinates": [-0.022554, 51.505848] } },
    { "type": "Feature", "properties": { "name": "20 Canada Square", "address": "20 Canada Square, E14", "use": "Commercial - Offices", "year": 2003, "height_metres": 71, "status": "Constructed", "architect": "Skidmore, Owings & Merrill LLP", "lat": 51.504175, "lon": -0.016696, "geometry": "POINT (-0.016696, 51.504175)" }, "geometry": { "type": "Point", "coordinates": [-0.016696, 51.504175] } },
    { "type": "Feature", "properties": { "name": "20 Churchill Place", "address": "20 Churchill Place, E14", "use": "Commercial - Offices", "year": 2008, "height_metres": 71, "status": "Constructed", "architect": "Kohn Pedersen Fox Associates", "lat": 51.503936, "lon": -0.014092, "geometry": "POINT (-0.014092, 51.503936)" }, "geometry": { "type": "Point", "coordinates": [-0.014092, 51.503936] } },
    { "type": "Feature", "properties": { "name": "30 The North Colonnade", "address": "30 North Colonnade, E14", "use": "Commercial - Offices", "year": 2009, "height_metres": 69, "status": "Constructed", "architect": "Kohn Pedersen Fox Associates", "lat": 51.505038, "lon": -0.015447, "geometry": "POINT (-0.015447, 51.505038)" }, "geometry": { "type": "Point", "coordinates": [-0.015447, 51.505038] } },
    { "type": "Feature", "properties": { "name": "15 Canada Square", "address": "15 Canada Square, E14", "use": "Commercial - Offices", "year": 2010, "height_metres": 69, "status": "Constructed", "architect": "Kohn Pedersen Fox Associates", "lat": 51.505409, "lon": -0.016557, "geometry": "POINT (-0.016557, 51.505409)" }, "geometry": { "type": "Point", "coordinates": [-0.016557, 51.505409] } },
    { "type": "Feature", "properties": { "name": "5 Churchill Place", "address": "5 Churchill Place, E14", "use": "Commercial - Offices", "year": 2009, "height_metres": 68, "status": "Constructed", "architect": "HOK", "lat": 51.504703, "lon": -0.013284, "geometry": "POINT (-0.013284, 51.504703)" }, "geometry": { "type": "Point", "coordinates": [-0.013284, 51.504703] } },
    { "type": "Feature", "properties": { "name": "20 Bank Street", "address": "20 Bank Street, E14", "use": "Commercial - Offices", "year": 2003, "height_metres": 67.60, "status": "Constructed", "architect": "Skidmore, Owings & Merrill LLP", "lat": 51.503117, "lon": -0.021971, "geometry": "POINT (-0.021971, 51.503117)" }, "geometry": { "type": "Point", "coordinates": [-0.021971, 51.503117] } },
    { "type": "Feature", "properties": { "name": "20 Cabot Square", "address": "20 Cabot Square", "use": "Commercial - Mixed", "year": 1991, "height_metres": 65.23, "status": "Constructed", "architect": "Kohn Pedersen Fox Associates", "lat": 51.504889, "lon": -0.022637, "geometry": "POINT (-0.022637, 51.504889)" }, "geometry": { "type": "Point", "coordinates": [-0.022637, 51.504889] } },
    { "type": "Feature", "properties": { "name": "50 Bank Street", "address": "50 Bank Street, E14", "use": "Commercial - Offices", "year": 2002, "height_metres": 62.50, "status": "Constructed", "architect": "Cesar Pelli & Associates Architects", "lat": 51.502493, "lon": -0.017706, "geometry": "POINT (-0.017706, 51.502493)" }, "geometry": { "type": "Point", "coordinates": [-0.017706, 51.502493] } },
    { "type": "Feature", "properties": { "name": "YY London", "address": "30 South Colonnade, E14", "use": "Commercial - Mixed", "year": 1991, "height_metres": 62.20, "status": "Constructed", "architect": "Kohn Pedersen Fox Associates", "lat": 51.504704, "lon": -0.020107, "geometry": "POINT (-0.020107, 51.504704)" }, "geometry": { "type": "Point", "coordinates": [-0.020107, 51.504704] } },
    { "type": "Feature", "properties": { "name": "Cascades", "address": "2-4 Westferry Road, E14", "use": "Residential + Retail", "year": 1988, "height_metres": 59.13, "status": "Constructed", "architect": "CZWG Architects", "lat": 51.503041, "lon": -0.026197, "geometry": "POINT (-0.026197, 51.503041)" }, "geometry": { "type": "Point", "coordinates": [-0.026197, 51.503041] } },
    { "type": "Feature", "properties": { "name": "Eaton House", "address": "38-39 Westferry Circus, E14", "use": "Residential", "year": 1999, "height_metres": 49.00, "status": "Constructed", "architect": "Koetter Kim & Associates International", "lat": 51.507496, "lon": -0.027899, "geometry": "POINT (-0.027899, 51.507496)" }, "geometry": { "type": "Point", "coordinates": [-0.027899, 51.507496] } },
    { "type": "Feature", "properties": { "name": "Belgrave Court", "address": "36 Westferry Circus, E14", "use": "Residential", "year": 1999, "height_metres": 46.00, "status": "Constructed", "architect": "Koetter Kim & Associates International", "lat": 51.507327, "lon": -0.029005, "geometry": "POINT (-0.029005, 51.507327)" }, "geometry": { "type": "Point", "coordinates": [-0.029005, 51.507327] } },
    { "type": "Feature", "properties": { "name": "17 Columbus Courtyard", "address": "17 Columbus Courtyard, E14", "use": "Commercial - Offices", "year": 1999, "height_metres": 45.40, "status": "Constructed", "architect": "Gensler", "lat": 51.506138, "lon": -0.024439, "geometry": "POINT (-0.024439, 51.506138)" }, "geometry": { "type": "Point", "coordinates": [-0.024439, 51.506138] } },
    { "type": "Feature", "properties": { "name": "11 Westferry Circus", "address": "11 Westferry Circus, E14", "use": "Commercial - Mixed", "year": 1997, "height_metres": 45.40, "status": "Constructed", "architect": "Koetter Kim & Associates International", "lat": 51.506774, "lon": -0.026240, "geometry": "POINT (-0.026240, 51.506774)" }, "geometry": { "type": "Point", "coordinates": [-0.026240, 51.506774] } },
    { "type": "Feature", "properties": { "name": "1 Westferry Circus", "address": "1 Westferry Circus, E14", "use": "Commercial - Mixed", "year": 1992, "height_metres": 45.40, "status": "Constructed", "architect": "Skidmore, Owings & Merrill LLP", "lat": 51.506443, "lon": -0.026215, "geometry": "POINT (-0.026215, 51.506443)" }, "geometry": { "type": "Point", "coordinates": [-0.026215, 51.506443] } },
    { "type": "Feature", "properties": { "name": "20 Columbus Courtyard", "address": "20 Columbus Courtyard, E14", "use": "Commercial - Offices", "year": 1999, "height_metres": 45.40, "status": "Constructed", "architect": "Skidmore, Owings & Merrill LLP", "lat": 51.506204, "lon": -0.026296, "geometry": "POINT (-0.026296, 51.506204)" }, "geometry": { "type": "Point", "coordinates": [-0.026296, 51.506204] } },
    { "type": "Feature", "properties": { "name": "The Market Building", "address": "7 Charter Street, E14", "use": "Commercial - Mixed", "year": 2022, "height_metres": 45.00, "status": "Under Construction", "architect": "Pilbrow & Partners", "lat": 51.503480, "lon": -0.012461, "geometry": "POINT (-0.012461, 51.503480)" }, "geometry": { "type": "Point", "coordinates": [-0.012461, 51.503480] } },
    { "type": "Feature", "properties": { "name": "Frameworks", "address": "8 Union Square, E14", "use": "Commercial - Mixed", "year": 2022, "height_metres": 45.00, "status": "Under Construction", "architect": "Allford Hall Monaghan Morris Architects", "lat": 51.503118, "lon": -0.012833, "geometry": "POINT (-0.012833, 51.503118)" }, "geometry": { "type": "Point", "coordinates": [-0.012833, 51.503118] } },
    { "type": "Feature", "properties": { "name": "15 Westferry Circus", "address": "15 Westferry Circus, E14", "use": "Commercial - Offices", "year": 2001, "height_metres": 44.40, "status": "Constructed", "architect": "Farrells (London) LLP", "lat": 51.505527, "lon": -0.025554, "geometry": "POINT (-0.025554, 51.505527)" }, "geometry": { "type": "Point", "coordinates": [-0.025554, 51.505527] } },
    { "type": "Feature", "properties": { "name": "20 Water Street", "address": "20 Water Street, E14", "use": "Commercial - Mixed", "year": 2021, "height_metres": 44.00, "status": "Constructed", "architect": "Allies and Morrison Architects", "lat": 51.502410, "lon": -0.013377, "geometry": "POINT (-0.013377, 51.502410)" }, "geometry": { "type": "Point", "coordinates": [-0.013377, 51.502410] } },
    { "type": "Feature", "properties": { "name": "15 Water Street", "address": "15 Water Street", "use": "Commercial - Mixed", "year": 2021, "height_metres": 44.00, "status": "Constructed", "architect": "Allies and Morrison Architects", "lat": 51.503329, "lon": -0.013227, "geometry": "POINT (-0.013227, 51.503329)" }, "geometry": { "type": "Point", "coordinates": [-0.013227, 51.503329] } },
    { "type": "Feature", "properties": { "name": "7 Westferry Circus", "address": "7 Westferry Circus, E14", "use": "Commercial - Mixed", "year": 1992, "height_metres": 44, "status": "Constructed", "architect": "Skidmore, Owings & Merrill LLP", "lat": 51.506445, "lon": -0.025856, "geometry": "POINT (-0.025856, 51.506445)" }, "geometry": { "type": "Point", "coordinates": [-0.025856, 51.506445] } },
    { "type": "Feature", "properties": { "name": "8 Water Street", "address": "Water Square, E14", "use": "Residential", "year": 2020, "height_metres": 43, "status": "Constructed", "architect": "Stanton Williams", "lat": 51.502991, "lon": -0.014785, "geometry": "POINT (-0.014785, 51.502991)" }, "geometry": { "type": "Point", "coordinates": [ -0.014785, 51.502991] } },
    { "type": "Feature", "properties": { "name": "The Horizon Building", "address": "11 Hertsmere Road, E14", "use": "Residential", "year": 2000, "height_metres": 40, "status": "Constructed", "architect": "Squire and Partners", "lat": 51.507831, "lon": -0.022394, "geometry": "POINT (-0.022394, 51.507831)" }, "geometry": { "type": "Point", "coordinates": [-0.022394, 51.507831] } },
    { "type": "Feature", "properties": { "name": "65 Harbord Square", "address": "65 Harbord Square, E14", "use": "Residential", "year": 2020, "height_metres": 36.00, "status": "Constructed", "architect": "Patel Taylor", "lat": 51.502641, "lon": -0.009937, "geometry": "POINT (-0.009937, 51.502641)" }, "geometry": { "type": "Point", "coordinates": [-0.009937, 51.502641] } },
    { "type": "Feature", "properties": { "name": "50 Harbord Square", "address": "50 Harbord Square, E14", "use": "Residential", "year": 2020, "height_metres": 33.00, "status": "Constructed", "architect": "Patel Taylor", "lat": 51.502615, "lon": -0.009980, "geometry": "POINT (-0.009980, 51.502615)" }, "geometry": { "type": "Point", "coordinates": [-0.009980, 51.502615] } },
    { "type": "Feature", "properties": { "name": "Four Seasons Hotel Canary Wharf", "address": "46 Westferry Circus", "use": "Commercial - Hotel", "year": 1999, "height_metres": 33.00, "status": "Constructed", "architect": "Koetter Kim & Associates International", "lat": 51.506698, "lon": -0.027903, "geometry": "POINT (-0.027903, 51.506698)" }, "geometry": { "type": "Point", "coordinates": [-0.027903, 51.506698] } },
    { "type": "Feature", "properties": { "name": "Endeavour House", "address": "47 Cuba Street, E14", "use": "Residential", "year": 2010, "height_metres": 30.00, "status": "Constructed", "architect": "Squire and Partners", "lat": 51.501871, "lon": -0.024938, "geometry": "POINT (-0.024938, 51.501871)" }, "geometry": { "type": "Point", "coordinates": [-0.024938, 51.501871] } },
    { "type": "Feature", "properties": { "name": "Mayflower House", "address": "19 Westferry Road", "use": "Residential + Retail", "year": 2010, "height_metres": 27.00, "status": "Constructed", "architect": "Squire and Partners", "lat": 51.502138, "lon": -0.025477, "geometry": "POINT (-0.025477, 51.502138)" }, "geometry": { "type": "Point", "coordinates": [-0.025477, 51.502138] } },
    { "type": "Feature", "properties": { "name": "Crossrail Place", "address": "1 Crossrail Place, E14", "use": "Retail + Transport Hub", "year": 2019, "height_metres": 12.00, "status": "Constructed", "architect": "Foster + Partners/Arup Group Limited", "lat": 51.506304, "lon": -0.018269, "geometry": "POINT (-0.018269, 51.506304)" }, "geometry": { "type": "Point", "coordinates": [-0.018269, 51.506304] } },
    { "type": "Feature", "properties": { "name": "One Undershaft", "address": "1 Undershaft, EC3", "use": "Commercial - Mixed", "year": "Unknown", "height_metres": 290.00, "status": "Planned", "architect": "Eric Parry Architects", "lat": 51.514357, "lon": -0.081613, "geometry": "POINT (-0.081613, 51.514357)" }, "geometry": { "type": "Point", "coordinates": [-0.081613, 51.514357] } },
    { "type": "Feature", "properties": { "name": "TwentyTwo", "address": "22 Bishopsgate, EC2N", "use": "Commercial - Mixed", "year": 2021, "height_metres": 278.20, "status": "Constructed", "architect": "PLP Architecture Ltd", "lat": 51.514529, "lon": -0.083082, "geometry": "POINT (-0.083082, 51.514529)" }, "geometry": { "type": "Point", "coordinates": [-0.083082, 51.514529] } },
    { "type": "Feature", "properties": { "name": "100 Leadenhall", "address": "100 Leadenhall Street, EC3A", "use": "Commercial - Offices", "year": "Unknown", "height_metres": 247.00, "status": "Planned", "architect": "Skidmore, Owings & Merrill LLP", "lat": 51.513769, "lon": -0.080201, "geometry": "POINT (-0.080201, 51.513769)" }, "geometry": { "type": "Point", "coordinates": [-0.080201, 51.513769] } },
    { "type": "Feature", "properties": { "name": "110 Bishopsgate", "address": "106-126 Bishopsgate, EC2N", "use": "Commercial - Mixed", "year": 2011, "height_metres": 242.00, "status": "Constructed", "architect": "Kohn Pedersen Fox Associates", "lat": 51.516366, "lon": -0.080923, "geometry": "POINT (-0.080923, 51.516366)" }, "geometry": { "type": "Point", "coordinates": [-0.080923, 51.516366] } },
    { "type": "Feature", "properties": { "name": "The Leadenhall Building", "address": "122 Leadenhall Street, EC3", "use": "Commercial - Mixed", "year": 2014, "height_metres": 224.50, "status": "Constructed", "architect": "Rogers Stirk Harbour + Partners", "lat": 51.514109, "lon": -0.082597, "geometry": "POINT (-0.082597, 51.514109)" }, "geometry": { "type": "Point", "coordinates": [-0.082597, 51.514109] } },
    { "type": "Feature", "properties": { "name": "8 Bishopsgate", "address": "6-8 Bishopsgate, EC3V", "use": "Commercial - Mixed", "year": 2022, "height_metres": 204.00, "status": "Under Construction", "architect": "WilkinsonEyre", "lat": 51.514158, "lon": -0.083604, "geometry": "POINT (-0.083604, 51.514158)" }, "geometry": { "type": "Point", "coordinates": [-0.083604, 51.514158] } },
    { "type": "Feature", "properties": { "name": "52 Lime Street", "address": "52-54 Lime Street, EC3M", "use": "Commercial - Mixed", "year": 2018, "height_metres": 190.10, "status": "Constructed", "architect": "Kohn Pedersen Fox Associates", "lat": 51.513405, "lon": -0.081158, "geometry": "POINT (-0.081158, 51.513405)" }, "geometry": { "type": "Point", "coordinates": [-0.081158, 51.513405] } },
    { "type": "Feature", "properties": { "name": "31 Bury Street", "address": "31 Bury Street, EC3A", "use": "Commercial - Mixed", "year": "Unknown", "height_metres": 183.00, "status": "Planned", "architect": "Stiff + Trevillion Architects LLP", "lat": 51.513982, "lon": -0.079594, "geometry": "POINT (-0.079594, 51.513982)" }, "geometry": { "type": "Point", "coordinates": [-0.079594, 51.513982] } },
    { "type": "Feature", "properties": { "name": "30 St. Mary Axe", "address": "30 St. Mary Axe, EC3A", "use": "Commercial - Mixed", "year": 2003, "height_metres": 179.80, "status": "Constructed", "architect": "Foster + Partners", "lat": 51.514652, "lon": -0.080327, "geometry": "POINT (-0.080327, 51.514652)" }, "geometry": { "type": "Point", "coordinates": [-0.080327, 51.514652] } },
    { "type": "Feature", "properties": { "name": "100 Bishopsgate", "address": "100 Bishopsgate, EC3A", "use": "Commercial - Mixed", "year": 2019, "height_metres": 172.00, "status": "Constructed", "architect": "Allies and Morrison Architects, Arney Fender Katsalidis Architects, Woods Bagot", "lat": 51.516018, "lon": -0.081681, "geometry": "POINT (-0.081681, 51.516018)" }, "geometry": { "type": "Point", "coordinates": [-0.081681, 51.516018] } },
    { "type": "Feature", "properties": { "name": "The Broadgate Tower", "address": "20 Primrose Street, EC2A", "use": "Commercial - Offices", "year": 2008, "height_metres": 161.25, "status": "Constructed", "architect": "Skidmore, Owings & Merrill LLP", "lat": 51.521535, "lon": -0.079776, "geometry": "POINT (-0.079776, 51.521535)" }, "geometry": { "type": "Point", "coordinates": [-0.079776, 51.521535] } },
    { "type": "Feature", "properties": { "name": "20 Fenchurch Street", "address": "20 Fenchurch Street, EC3M", "use": "Commercial - Mixed", "year": 2014, "height_metres": 160.12, "status": "Constructed", "architect": "Rafael Vinoly Architects, P.C.", "lat": 51.511597, "lon": -0.083491, "geometry": "POINT (-0.083491, 51.511597)" }, "geometry": { "type": "Point", "coordinates": [-0.083491, 51.511597] } },
    { "type": "Feature", "properties": { "name": "One Leadenhall", "address": "100 Leadenhall Street, EC3A", "use": "Commercial - Offices", "year": "Unknown", "height_metres": 247.00, "status": "Planned", "architect": "Skidmore, Owings & Merrill LLP", "lat": 51.513762, "lon": -0.080212, "geometry": "POINT (-0.080212, 51.513762)" }, "geometry": { "type": "Point", "coordinates": [-0.080212, 51.513762] } },
    { "type": "Feature", "properties": { "name": "2 Finsbury Avenue", "address": "2 Finsbury Avenue, EC2M", "use": "Commercial - Mixed", "year": "Unknown", "height_metres": 156.00, "status": "Planned", "architect": "3XN Architects", "lat": 51.520134, "lon": -0.084868, "geometry": "POINT (-0.084868, 51.520134)" }, "geometry": { "type": "Point", "coordinates": [-0.084868, 51.520134] } },
    { "type": "Feature", "properties": { "name": "40 Leadenhall Street", "address": "19-21 Billiter Street, EC3M", "use": "Commercial - Mixed", "year": 2024, "height_metres": 155, "status": "Under Construction", "architect": "Make Architects", "lat": 51.512881, "lon": -0.079986, "geometry": "POINT (-0.079986, 51.512881)" }, "geometry": { "type": "Point", "coordinates": [-0.079986, 51.512881] } },
    { "type": "Feature", "properties": { "name": "50 Fenchurch Street", "address": "50 Fenchurch Street, EC3M", "use": "Commercial - Offices", "year": "Unknown", "height_metres": 149.60, "status": "Planned", "architect": "Eric Parry Architects", "lat": 51.511901, "lon": -0.081030, "geometry": "POINT (-0.081030, 51.511901)" }, "geometry": { "type": "Point", "coordinates": [-0.081030, 51.511901] } },
    { "type": "Feature", "properties": { "name": "70 Gracechurch Street", "address": "70 Gracechurch Street, EC3V", "use": "Commercial - Mixed", "year": "Unknown", "height_metres": 138.00, "status": "Planned", "architect": "Kohn Pedersen Fox Associates", "lat": 51.512352, "lon": -0.084622, "geometry": "POINT (-0.084622, 51.512352)" }, "geometry": { "type": "Point", "coordinates": [-0.084622, 51.512352] } },
    { "type": "Feature", "properties": { "name": "One Bishopsgate Plaza", "address": "128-150 Bishopsgate, EC2M", "use": "Residential - Mixed", "year": 2021, "height_metres": 135.00, "status": "Constructed", "architect": "McCusker Storey McIntosh Architects Limited, PLP Architecture Ltd", "lat": 51.516806, "lon": -0.080713, "geometry": "POINT (-0.080713, 51.516806)" }, "geometry": { "type": "Point", "coordinates": [-0.080713, 51.516806] } },
    { "type": "Feature", "properties": { "name": "55 Gracechurch Street", "address": "55 Gracechurch Street, EC3V", "use": "Commercial - Mixed", "year": "Unknown", "height_metres": 130.00, "status": "Planned", "architect": "Fletcher Priest Architects Ltd", "lat": 51.511392, "lon": -0.085192, "geometry": "POINT (-0.085192, 51.511392)" }, "geometry": { "type": "Point", "coordinates": [-0.085192, 51.511392] } },
    { "type": "Feature", "properties": { "name": "The Willis Building", "address": "51 Lime Street, EC3M", "use": "Commercial - Mixed", "year": 2007, "height_metres": 124.77, "status": "Constructed", "architect": "Foster + Partners", "lat": 51.512973, "lon": -0.081476, "geometry": "POINT (-0.081476, 51.512973)" }, "geometry": { "type": "Point", "coordinates": [-0.081476, 51.512973] } },
    { "type": "Feature", "properties": { "name": "The Heron", "address": "5 Moor Lane, EC2Y 9AP", "use": "Residential - Mixed", "year": 2013, "height_metres": 111.98, "status": "Constructed", "architect": "David Walker Architects Ltd", "lat": 51.520083, "lon": -0.090120, "geometry": "POINT (-0.090120, 51.520083)" }, "geometry": { "type": "Point", "coordinates": [-0.090120, 51.520083] } },
    { "type": "Feature", "properties": { "name": "Wallbrook Square Building 1", "address": "Queen Victoria Street, EC4V", "use": "Commercial - Mixed", "year": 2010, "height_metres": 106.65, "status": "Constructed", "architect": "Atelier Foster Nouvel", "lat": 51.512722, "lon": -0.090218, "geometry": "POINT (-0.090218, 51.512722)" }, "geometry": { "type": "Point", "coordinates": [-0.090218, 51.512722] } },
    { "type": "Feature", "properties": { "name": "115-123 Houndsditch", "address": "115-126 Houndsditch, EC3A", "use": "Commercial - Offices", "year": "Unknown", "height_metres": 103.30, "status": "Planned", "architect": "Allford Hall Monaghan Morris Architects", "lat": 51.515723, "lon": -0.078885, "geometry": "POINT (-0.078885, 51.515723)" }, "geometry": { "type": "Point", "coordinates": [-0.078885, 51.515723] } },
    { "type": "Feature", "properties": { "name": "The Lloyd's Building", "address": "1 Lime Street, EC3", "use": "Commercial - Offices", "year": 1986, "height_metres": 95.10, "status": "Constructed", "architect": "Richard Rogers Partnership", "lat": 51.512837, "lon": -0.082263, "geometry": "POINT (-0.082263, 51.512837)" }, "geometry": { "type": "Point", "coordinates": [-0.082263, 51.512837] } },
    { "type": "Feature", "properties": { "name": "200 Aldersgate Street", "address": "200 Aldersgate Street, EC1A", "use": "Commercial - Mixed", "year": 2010, "height_metres": 90.80, "status": "Constructed", "architect": "Fitzroy Robinson & Partners", "lat": 51.518194, "lon": -0.097629, "geometry": "POINT (-0.097629, 51.518194)" }, "geometry": { "type": "Point", "coordinates": [-0.097629, 51.518194] } },
    { "type": "Feature", "properties": { "name": "70 St. Mary Axe", "address": "60-70 St. Mary Axe, EC3", "use": "Commercial - Offices", "year": 2018, "height_metres": 90.60, "status": "Constructed", "architect": "Foggo Associates", "lat": 51.515570, "lon": -0.079619, "geometry": "POINT (-0.079619, 51.515570)" }, "geometry": { "type": "Point", "coordinates": [-0.079619, 51.515570] } },
    { "type": "Feature", "properties": { "name": "Twenty Gracechurch Street", "address": "20 Gracechurch Street, EC3V", "use": "Commercial - Mixed", "year": 1992, "height_metres": 87.40, "status": "Constructed", "architect": "GMW Architects", "lat": 51.512529, "lon": -0.085032, "geometry": "POINT (-0.085032, 51.512529)" }, "geometry": { "type": "Point", "coordinates": [-0.085032, 51.512529] } },
    { "type": "Feature", "properties": { "name": "Moor House", "address": "120 London Wall, EC2", "use": "Commercial + Transport Hub", "year": 2004, "height_metres": 83.50, "status": "Constructed", "architect": "Foster + Partners", "lat": 51.517864, "lon": -0.089597, "geometry": "POINT (-0.089597, 51.517864)" }, "geometry": { "type": "Point", "coordinates": [-0.089597, 51.517864] } },
    { "type": "Feature", "properties": { "name": "125 London Wall", "address": "125 London Wall, EC2", "use": "Commercial - Mixed", "year": 1992, "height_metres": 82.00, "status": "Constructed", "architect": "Farrells (London) LLP", "lat": 51.517621, "lon": -0.093639, "geometry": "POINT (-0.093639, 51.517621)" }, "geometry": { "type": "Point", "coordinates": [-0.093639, 51.517621] } },
    { "type": "Feature", "properties": { "name": "One Creechurch Place", "address": "1 Mitre Square, EC3", "use": "Commercial - Mixed", "year": 2016, "height_metres": 79.67, "status": "Constructed", "architect": "Sheppard Robson", "lat": 51.513985, "lon": -0.078087, "geometry": "POINT (-0.078087, 51.513985)" }, "geometry": { "type": "Point", "coordinates": [-0.078087, 51.513985] } },
    { "type": "Feature", "properties": { "name": "EightyFen", "address": "80 Fenchurch Street, EC3M", "use": "Commercial - Mixed", "year": 2020, "height_metres": 77.00, "status": "Constructed", "architect": "TP Bennett LLP", "lat": 51.512770, "lon": -0.077994, "geometry": "POINT (-0.077994, 51.512770)" }, "geometry": { "type": "Point", "coordinates": [-0.077994, 51.512770] } },
    { "type": "Feature", "properties": { "name": "6 New Street Square", "address": "6 New Street Square, EC4", "use": "Commercial - Mixed", "year": 2007, "height_metres": 76.45, "status": "Constructed", "architect": "Bennetts Associates Architects", "lat": 51.515967, "lon": -0.107860, "geometry": "POINT (-0.107860, 51.515967)" }, "geometry": { "type": "Point", "coordinates": [-0.107860, 51.515967] } },
    { "type": "Feature", "properties": { "name": "New Court", "address": "St. Swithin's Lane, EC4P", "use": "Commercial - Offices", "year": 2010, "height_metres": 75.40, "status": "Constructed", "architect": "Office for Metropolitan Architects", "lat": 51.512312, "lon": -0.088984, "geometry": "POINT (-0.088984, 51.512312)" }, "geometry": { "type": "Point", "coordinates": [-0.088984, 51.512312] } },
    { "type": "Feature", "properties": { "name": "88 Wood Street", "address": "88 Wood Street EC2", "use": "Commercial - Offices", "year": 1998, "height_metres": 75.00, "status": "Constructed", "architect": "Richard Rogers Partnership", "lat": 51.517183, "lon": -0.094389, "geometry": "POINT (-0.094389, 51.517183)" }, "geometry": { "type": "Point", "coordinates": [-0.094389, 51.517183] } },
    { "type": "Feature", "properties": { "name": "No.1 Minster Court", "address": "21-38 Mincing Lane, EC3", "use": "Commercial - Offices", "year": 1990, "height_metres": 74.00, "status": "Constructed", "architect": "GMW Architects", "lat": 51.510599, "lon": -0.081121, "geometry": "POINT (-0.081121, 51.510599)" }, "geometry": { "type": "Point", "coordinates": [-0.081121, 51.510599] } },
    { "type": "Feature", "properties": { "name": "6 Bevis Marks", "address": "6 Bevis Marks, EC3A", "use": "Commercial - Mixed", "year": 2013, "height_metres": 72.00, "status": "Constructed", "architect": "Fletcher Priest Architects Ltd", "lat": 51.515284, "lon": -0.079765, "geometry": "POINT (-0.079765, 51.515284)" }, "geometry": { "type": "Point", "coordinates": [-0.079765, 51.515284] } },
    { "type": "Feature", "properties": { "name": "21 Moorfields", "address": "21 Moorfields, EC2M", "use": "Commercial - Mixed", "year": 2022, "height_metres": 71.70, "status": "Under Construction", "architect": "WilkinsonEyre", "lat": 51.518756, "lon": -0.088814, "geometry": "POINT (-0.088814, 51.518756)" }, "geometry": { "type": "Point", "coordinates": [-0.088814, 51.518756] } },
    { "type": "Feature", "properties": { "name": "2 London Wall Place", "address": "121 London Wall, EC2M", "use": "Commercial - Offices", "year": 2017, "height_metres": 71.00, "status": "Constructed", "architect": "Make Architects", "lat": 51.517609, "lon": -0.096023, "geometry": "POINT (-0.096023, 51.517609)" }, "geometry": { "type": "Point", "coordinates": [-0.096023, 51.517609] } },
    { "type": "Feature", "properties": { "name": "5 Aldermanbury Square", "address": "5 Aldermanbury Square, EC2V", "use": "Commercial - Mixed", "year": 2007, "height_metres": 70.71, "status": "Constructed", "architect": "Eric Parry Architects", "lat": 51.517136, "lon": -0.093311, "geometry": "POINT (-0.093311, 51.517136)" }, "geometry": { "type": "Point", "coordinates": [-0.093311, 51.517136] } },
    { "type": "Feature", "properties": { "name": "1 New Street Square", "address": "Little New Street, EC4A", "use": "Commercial - Mixed", "year": 2016, "height_metres": 70.00, "status": "Constructed", "architect": "Robin Partington Architects", "lat": 51.515757, "lon": -0.107510, "geometry": "POINT (-0.107510, 51.515757)" }, "geometry": { "type": "Point", "coordinates": [-0.107510, 51.515757] } },
    { "type": "Feature", "properties": { "name": "5 Broadgate", "address": "4-6 Broadgate Circle, EC2M", "use": "Commercial - Offices", "year": 2015, "height_metres": 69.00, "status": "Constructed", "architect": "Make Architects", "lat": 51.519148, "lon": -0.083686, "geometry": "POINT (-0.083686, 51.519148)" }, "geometry": { "type": "Point", "coordinates": [-0.083686, 51.519148] } },
    { "type": "Feature", "properties": { "name": "10 Fenchurch Avenue", "address": "120 Fenchurch Street, EC3", "use": "Commercial - Offices", "year": 2018, "height_metres": 68.63, "status": "Constructed", "architect": "Eric Parry Architects", "lat": 51.512299, "lon": -0.080645, "geometry": "POINT (-0.080645, 51.512299)" }, "geometry": { "type": "Point", "coordinates": [-0.080645, 51.512299] } },
    { "type": "Feature", "properties": { "name": "Plantation Place", "address": "30-35 Fenchurch Street, EC3", "use": "Commercial - Offices", "year": 2004, "height_metres": 67.55, "status": "Constructed", "architect": "Arup Associates", "lat": 51.511402, "lon": -0.082328, "geometry": "POINT (-0.082328, 51.511402)" }, "geometry": { "type": "Point", "coordinates": [-0.082328, 51.511402] } },
    { "type": "Feature", "properties": { "name": "One America Square", "address": "17 Crosswall, EC3N", "use": "Commercial - Offices", "year": 1990, "height_metres": 67.40, "status": "Constructed", "architect": "Renton Howard Wood Levin LLP", "lat": 51.511758, "lon": -0.075831, "geometry": "POINT (-0.075831, 51.511758)" }, "geometry": { "type": "Point", "coordinates": [-0.075831, 51.511758] } },
    { "type": "Feature", "properties": { "name": "70 Mark Lane", "address": "64-74 Mark Lane, EC3", "use": "Commercial - Mixed", "year": 2014, "height_metres": 67.17, "status": "Constructed", "architect": "Bennetts Associates Architects", "lat": 51.511400, "lon": -0.079742, "geometry": "POINT (-0.079742, 51.511400)" }, "geometry": { "type": "Point", "coordinates": [-0.079742, 51.511400] } },
    { "type": "Feature", "properties": { "name": "Plumtree Court", "address": "40 Shoe Lane, EC4A", "use": "Commercial - Offices", "year": 2019, "height_metres": 65.78, "status": "Constructed", "architect": "Kohn Pedersen Fox Associates", "lat": 51.518066, "lon": -0.106291, "geometry": "POINT (-0.106291, 51.518066)" }, "geometry": { "type": "Point", "coordinates": [-0.106291, 51.518066] } },
    { "type": "Feature", "properties": { "name": "Drapers Gardens", "address": "12 Throgmorton Avenue, EC2", "use": "Commercial - Mixed", "year": 2009, "height_metres": 73.40, "status": "Constructed", "architect": "Foggo Associates", "lat": 51.516161, "lon": -0.087244, "geometry": "POINT (-0.087244, 51.516161)" }, "geometry": { "type": "Point", "coordinates": [-0.087244, 51.516161] } },
    { "type": "Feature", "properties": { "name": "No.2 Minster Court", "address": "21-38 Mincing Lane, EC3", "use": "Commercial - Offices", "year": 1990, "height_metres": 65.00, "status": "Constructed", "architect": "GMW Architects", "lat": 51.510945, "lon": -0.081060, "geometry": "POINT (-0.081060, 51.510945)" }, "geometry": { "type": "Point", "coordinates": [-0.081060, 51.510945] } },
    { "type": "Feature", "properties": { "name": "Exchange House", "address": "Primrose Street, EC2A", "use": "Commercial - Offices", "year": 1990, "height_metres": 64.83, "status": "Constructed", "architect": "Skidmore, Owings & Merrill LLP", "lat": 51.520567, "lon": -0.080953, "geometry": "POINT (-0.080953, 51.520567)" }, "geometry": { "type": "Point", "coordinates": [-0.080953, 51.520567] } },
    { "type": "Feature", "properties": { "name": "201 Bishopsgate", "address": "201 Bishopsgate, EC2", "use": "Commercial - Mixed", "year": 2008, "height_metres": 63.43, "status": "Constructed", "architect": "Skidmore, Owings & Merrill LLP", "lat": 51.521127, "lon": -0.0793010, "geometry": "POINT (-0.0793010, 51.521127)" }, "geometry": { "type": "Point", "coordinates": [-0.0793010, 51.521127] } },
    { "type": "Feature", "properties": { "name": "The St Botolph Building", "address": "138-139 Houndsditch, EC3", "use": "Commercial - Mixed", "year": 2010, "height_metres": 62.51, "status": "Constructed", "architect": "Grimshaw Architects", "lat": 51.514922, "lon": -0.0771306, "geometry": "POINT (-0.0771306, 51.514922)" }, "geometry": { "type": "Point", "coordinates": [-0.0771306, 51.514922] } },
    { "type": "Feature", "properties": { "name": "58 Fenchurch Street", "address": "56-59 Fenchurch Street, EC3", "use": "Commercial - Offices", "year": 2002, "height_metres": 61.88, "status": "Constructed", "architect": "Kohn Pedersen Fox Associates", "lat": 51.511868, "lon": -0.079967, "geometry": "POINT (-0.079967, 51.511868)" }, "geometry": { "type": "Point", "coordinates": [-0.079967, 51.511868] } },
    { "type": "Feature", "properties": { "name": "175 Bishopsgate", "address": "175 Bishopsgate, EC2", "use": "Commercial - Offices", "year": 1989, "height_metres": 60.00, "status": "Constructed", "architect": "Skidmore, Owings & Merrill LLP", "lat": 51.519695, "lon": -0.079435, "geometry": "POINT (-0.079435, 51.519695)" }, "geometry": { "type": "Point", "coordinates": [-0.079435, 51.519695] } },
    { "type": "Feature", "properties": { "name": "135 Bishopsgate", "address": "135 Bishopsgate, EC2M", "use": "Commercial - Mixed", "year": 1989, "height_metres": 60.00, "status": "Constructed", "architect": "Fletcher Priest Architects Ltd, Skidmore, Owings & Merrill LLP", "lat": 51.520067, "lon": -0.079237, "geometry": "POINT (-0.079237, 51.520067)" }, "geometry": { "type": "Point", "coordinates": [-0.079237, 51.520067] } },
    { "type": "Feature", "properties": { "name": "155 Bishopsgate", "address": "155 Bishopsgate, EC2", "use": "Commercial - Mixed", "year": 1989, "height_metres": 60.00, "status": "Constructed", "architect": "Skidmore, Owings & Merrill LLP", "lat": 51.519109, "lon": -0.079646, "geometry": "POINT (-0.079646, 51.519109)" }, "geometry": { "type": "Point", "coordinates": [-0.079646, 51.519109] } },
    { "type": "Feature", "properties": { "name": "12 New Fetter Lane", "address": "12-14 New Fetter Lane, EC4", "use": "Commercial - Mixed", "year": 2015, "height_metres": 59.35, "status": "Constructed", "architect": "Doone, Silver, Kerr + Flanagan Lawrence", "lat": 51.516313, "lon": -0.108918, "geometry": "POINT (-0.108918, 51.516313)" }, "geometry": { "type": "Point", "coordinates": [-0.108918, 51.516313] } },
    { "type": "Feature", "properties": { "name": "No.3 Minster Court", "address": "21-38 Mincing Lane, EC3", "use": "Commercial - Offices", "year": 1990, "height_metres": 59.10, "status": "Constructed", "architect": "GMW Architects", "lat": 51.510458, "lon": -0.081014, "geometry": "POINT (-0.081014, 51.510458)" }, "geometry": { "type": "Point", "coordinates": [-0.081014, 51.510458] } },
    { "type": "Feature", "properties": { "name": "One London Wall", "address": "1 London Wall, EC2", "use": "Commercial - Offices", "year": 2003, "height_metres": 58.50, "status": "Constructed", "architect": "Foster + Partners", "lat": 51.517345, "lon": -0.096073, "geometry": "POINT (-0.096073, 51.517345)" }, "geometry": { "type": "Point", "coordinates": [-0.096073, 51.517345] } },
    { "type": "Feature", "properties": { "name": "Lloyd's Register of Shipping Building", "address": "71 Fenchurch Street, EC3", "use": "Commercial - Offices", "year": 1999, "height_metres": 58.20, "status": "Constructed", "architect": "Richard Rogers Partnership", "lat": 51.512627, "lon": -0.078996, "geometry": "POINT (-0.078996, 51.512627)" }, "geometry": { "type": "Point", "coordinates": [-0.078996, 51.512627] } },
    { "type": "Feature", "properties": { "name": "Beaufort House", "address": "15 St. Botolph Street, EC3", "use": "Commercial - Offices", "year": 1988, "height_metres": 56.40, "status": "Constructed", "architect": "Renton Howard Wood Levin LLP", "lat": 51.515036, "lon": -0.076067, "geometry": "POINT (-0.076067, 51.515036)" }, "geometry": { "type": "Point", "coordinates": [-0.076067, 51.515036] } },
    { "type": "Feature", "properties": { "name": "Moor Place", "address": "1 Fore Street Avenue, EC2Y", "use": "Commercial - Mixed", "year": 2014, "height_metres": 56.00, "status": "Constructed", "architect": "HKR Architects", "lat": 51.518215, "lon": -0.090262, "geometry": "POINT (-0.090262, 51.518215)" }, "geometry": { "type": "Point", "coordinates": [-0.090262, 51.518215] } },
    { "type": "Feature", "properties": { "name": "1 London Wall Place", "address": "123 London Wall, EC2M", "use": "Commercial - Offices", "year": 2017, "height_metres": 55.00, "status": "Constructed", "architect": "Make Architects", "lat": 51.517860, "lon": -0.093093, "geometry": "POINT (-0.093093, 51.517860)" }, "geometry": { "type": "Point", "coordinates": [-0.093093, 51.517860] } },
    { "type": "Feature", "properties": { "name": "10 Exchange Square", "address": "10 Exchange Square, EC2", "use": "Commercial - Offices", "year": 2004, "height_metres": 54.76, "status": "Constructed", "architect": "Skidmore, Owings & Merrill LLP", "lat": 51.520484, "lon": -0.081808, "geometry": "POINT (-0.081808, 51.520484)" }, "geometry": { "type": "Point", "coordinates": [-0.081808, 51.520484] } },
    { "type": "Feature", "properties": { "name": "City Place House", "address": "55 Basinghall Street, EC2", "use": "Commercial - Offices", "year": 1992, "height_metres": 54.25, "status": "Constructed", "architect": "Swanke Hayden Connell Architects", "lat": 51.517040, "lon": -0.091528, "geometry": "POINT (-0.091528, 51.517040)" }, "geometry": { "type": "Point", "coordinates": [-0.091528, 51.517040] } },
    { "type": "Feature", "properties": { "name": "199 Bishopsgate", "address": "199 Bishopsgate, EC2", "use": "Commercial - Offices", "year": 1991, "height_metres": 53.66, "status": "Constructed", "architect": "Skidmore, Owings & Merrill LLP", "lat": 51.520468, "lon": -0.079296, "geometry": "POINT (-0.079296, 51.520468)" }, "geometry": { "type": "Point", "coordinates": [-0.079296, 51.520468] } },
    { "type": "Feature", "properties": { "name": "Motel One Tower Hill", "address": "24-26 Minories, EC3N", "use": "Commercial - Hotel", "year": 2014, "height_metres": 52.97, "status": "Constructed", "architect": "Mackay and Partners LLP", "lat": 51.512903, "lon": -0.075435, "geometry": "POINT (-0.075435, 51.512903)" }, "geometry": { "type": "Point", "coordinates": [-0.075435, 51.512903] } },
    { "type": "Feature", "properties": { "name": "5 New Street Square", "address": "5 New Street Square, EC4", "use": "Commercial - Mixed", "year": 2008, "height_metres": 52.75, "status": "Constructed", "architect": "Bennetts Associates Architects", "lat": 51.515696, "lon": -0.108732, "geometry": "POINT (-0.108732, 51.515696)" }, "geometry": { "type": "Point", "coordinates": [-0.108732, 51.515696] } },
    { "type": "Feature", "properties": { "name": "Shelley House", "address": "3 Noble Street, EC2V", "use": "Commercial - Offices", "year": 1999, "height_metres": 52.12, "status": "Constructed", "architect": "Sheppard Robson", "lat": 51.517234, "lon": -0.095401, "geometry": "POINT (-0.095401, 51.517234)" }, "geometry": { "type": "Point", "coordinates": [-0.095401, 51.517234] } },
    { "type": "Feature", "properties": { "name": "Milton Gate", "address": "1 Moor Lane, EC2", "use": "Commercial - Offices", "year": 1991, "height_metres": 51.07, "status": "Constructed", "architect": "Denys Lasdun, Peter Softley & Partners", "lat": 51.520675, "lon": -0.090177, "geometry": "POINT (-0.090177, 51.520675)" }, "geometry": { "type": "Point", "coordinates": [-0.090177, 51.520675] } },
    { "type": "Feature", "properties": { "name": "Vitro", "address": "60 Fenchurch Street, EC3M", "use": "Commercial - Mixed", "year": 2004, "height_metres": 61.60, "status": "Constructed", "architect": "John McAslan + Partners", "lat": 51.512273, "lon": -0.079628, "geometry": "POINT (-0.079628, 51.512273)" }, "geometry": { "type": "Point", "coordinates": [-0.079628, 51.512273] } },
    { "type": "Feature", "properties": { "name": "2 New Street Square", "address": "2 New Street Square, EC4", "use": "Commercial - Mixed", "year": 2007, "height_metres": 49.15, "status": "Constructed", "architect": "Bennetts Associates Architects", "lat": 51.516535, "lon": -0.107285, "geometry": "POINT (-0.107285, 51.516535)" }, "geometry": { "type": "Point", "coordinates": [-0.107285, 51.516535] } },
    { "type": "Feature", "properties": { "name": "120 Fleet Street", "address": "120-129 Fleet Street, EC4A", "use": "Commercial - Offices", "year": 2000, "height_metres": 49.07, "status": "Constructed", "architect": "Atkinson + CO, Hurley Robertson and Associates, Sir Owen Williams & Partners", "lat": 51.514732, "lon": -0.105777, "geometry": "POINT (-0.105777, 51.514732)" }, "geometry": { "type": "Point", "coordinates": [-0.105777, 51.514732] } },
    { "type": "Feature", "properties": { "name": "Regis House", "address": "43-46 King William Street, EC4", "use": "Commercial - Offices", "year": 1998, "height_metres": 48.90, "status": "Constructed", "architect": "GMW Architects", "lat": 51.509960, "lon": -0.087148, "geometry": "POINT (-0.087148, 51.509960)" }, "geometry": { "type": "Point", "coordinates": [-0.087148, 51.509960] } },
    { "type": "Feature", "properties": { "name": "Nexus Place", "address": "25 Farringdon Street, EC4", "use": "Commercial - Offices", "year": 2009, "height_metres": 46.98, "status": "Constructed", "architect": "Sturgis Associates LLP", "lat": 51.515848, "lon": -0.104215, "geometry": "POINT (-0.104215, 51.515848)" }, "geometry": { "type": "Point", "coordinates": [-0.104215, 51.515848] } },
    { "type": "Feature", "properties": { "name": "Riverbank House", "address": "2 Swan Lane, EC4", "use": "Commercial - Mixed", "year": 2010, "height_metres": 46.60, "status": "Constructed", "architect": "David Walker Architects Ltd", "lat": 51.509669, "lon": -0.088685, "geometry": "POINT (-0.088685, 51.509669)" }, "geometry": { "type": "Point", "coordinates": [-0.088685, 51.509669] } },
    { "type": "Feature", "properties": { "name": "Five Fleet Place", "address": "14 Farringdon Street, EC4", "use": "Commercial - Offices", "year": 2007, "height_metres": 45.50, "status": "Constructed", "architect": "Skidmore, Owings & Merrill LLP", "lat": 51.515004, "lon": -0.104498, "geometry": "POINT (-0.104498, 51.515004)" }, "geometry": { "type": "Point", "coordinates": [-0.104498, 51.515004] } },
    { "type": "Feature", "properties": { "name": "Urbanest City - Vine Street", "address": "35 Vine Street, EC3N", "use": "Commercial + Residential", "year": 2021, "height_metres": 45.00, "status": "Constructed", "architect": "Apt, Hopkins Architects Ltd", "lat": 51.512371, "lon": -0.076242, "geometry": "POINT (-0.076242, 51.512371)" }, "geometry": { "type": "Point", "coordinates": [-0.076242, 51.512371] } },
    { "type": "Feature", "properties": { "name": "100 Liverpool Street", "address": "100 Liverpool Street, EC2M", "use": "Commercial - Mixed", "year": 1989, "height_metres": 45.00, "status": "Constructed", "architect": "Unknown", "lat": 51.518048, "lon": -0.083436, "geometry": "POINT (-0.083436, 51.518048)" }, "geometry": { "type": "Point", "coordinates": [-0.083436, 51.518048] } },
    { "type": "Feature", "properties": { "name": "Watermark Place", "address": "90 Lower Thames Street, EC4R", "use": "Commercial - Mixed", "year": 2009, "height_metres": 44.59, "status": "Constructed", "architect": "Fletcher Priest Architects Ltd", "lat": 51.509460, "lon": -0.083336, "geometry": "POINT (-0.083336, 51.509460)" }, "geometry": { "type": "Point", "coordinates": [-0.083336, 51.509460] } },
    { "type": "Feature", "properties": { "name": "Landmark Place", "address": "Lower Thames Street, EC3R", "use": "Residential - Mixed", "year": 2018, "height_metres": 44.00, "status": "Constructed", "architect": "Foster + Partners", "lat": 51.508778, "lon": -0.081012, "geometry": "POINT (-0.081012, 51.508778)" }, "geometry": { "type": "Point", "coordinates": [-0.081012, 51.508778] } },
    { "type": "Feature", "properties": { "name": "Doubletree by Hilton Hotel London - Tower of London", "address": "7 Pepys Street, EC3N", "use": "Commercial - Hotel", "year": 2010, "height_metres": 43.98, "status": "Constructed", "architect": "Bennetts Associates Architects", "lat": 51.511009, "lon": -0.077981, "geometry": "POINT (-0.077981, 51.511009)" }, "geometry": { "type": "Point", "coordinates": [-0.077981, 51.511009] } },
    { "type": "Feature", "properties": { "name": "The Wallbrook", "address": "Wallbrook, EC4", "use": "Commercial - Mixed", "year": 2009, "height_metres": 43.10, "status": "Constructed", "architect": "Foster + Partners", "lat": 51.512221, "lon": -0.090272, "geometry": "POINT (-0.090272, 51.512221)" }, "geometry": { "type": "Point", "coordinates": [-0.090272, 51.512221] } },
    { "type": "Feature", "properties": { "name": "Monument Place", "address": "24 Monument Street, EC3R", "use": "Commercial - Mixed", "year": 2013, "height_metres": 43.00, "status": "Constructed", "architect": "David Walker Architects Ltd", "lat": 51.510105, "lon": -0.085645, "geometry": "POINT (-0.085645, 51.510105)" }, "geometry": { "type": "Point", "coordinates": [-0.085645, 51.510105] } },
    { "type": "Feature", "properties": { "name": "Sixty Threadneedle Street", "address": "60 Threadneedle Street, EC2", "use": "Commercial - Mixed", "year": 2008, "height_metres": 43.00, "status": "Constructed", "architect": "Eric Parry Architects", "lat": 51.514523, "lon": -0.086704, "geometry": "POINT (-0.086704, 51.514523)" }, "geometry": { "type": "Point", "coordinates": [-0.086704, 51.514523] } },
    { "type": "Feature", "properties": { "name": "Winchester House", "address": "75 London Wall, EC2", "use": "Commercial - Mixed", "year": 1998, "height_metres": 42.80, "status": "Constructed", "architect": "Swanke Hayden Connell Architects", "lat": 51.516419, "lon": -0.084646, "geometry": "POINT (-0.084646, 51.516419)" }, "geometry": { "type": "Point", "coordinates": [-0.084646, 51.516419] } },
    { "type": "Feature", "properties": { "name": "Fourteen Cornhill", "address": "13-22 Cornhill, EC3V", "use": "Commercial - Mixed", "year": 2008, "height_metres": 42.36, "status": "Constructed", "architect": "DLG Architects", "lat": 51.513387, "lon": -0.087969, "geometry": "POINT (-0.087969, 51.513387)" }, "geometry": { "type": "Point", "coordinates": [-0.087969, 51.513387] } },
    { "type": "Feature", "properties": { "name": "1 Fenchurch Avenue", "address": "1 Fenchurch Avenue, EC3", "use": "Commercial - Mixed", "year": 2007, "height_metres": 42.07, "status": "Constructed", "architect": "Foster + Partners", "lat": 51.512886, "lon": -0.080906, "geometry": "POINT (-0.080906, 51.512886)" }, "geometry": { "type": "Point", "coordinates": [-0.080906, 51.512886] } },
    { "type": "Feature", "properties": { "name": "33 Central", "address": "33 King William Street, EC4R", "use": "Commercial - Offices", "year": 2017, "height_metres": 42.00, "status": "Constructed", "architect": "John Robertson Architects", "lat": 51.510196, "lon": -0.087263, "geometry": "POINT (-0.087263, 51.510196)" }, "geometry": { "type": "Point", "coordinates": [-0.087263, 51.510196] } },
    { "type": "Feature", "properties": { "name": "Sixty London", "address": "60 Holborn Viaduct, EC1N", "use": "Commercial - Mixed", "year": 2013, "height_metres": 42.00, "status": "Constructed", "architect": "Kohn Pedersen Fox Associates", "lat": 51.517360, "lon": -0.104542, "geometry": "POINT (-0.104542, 51.517360)" }, "geometry": { "type": "Point", "coordinates": [-0.104542, 51.517360] } },
    { "type": "Feature", "properties": { "name": "Cannon Place", "address": "78 Cannon Street, EC4", "use": "Commercial - Offices", "year": 2011, "height_metres": 41.70, "status": "Constructed", "architect": "Foggo Associates", "lat": 51.511572, "lon": -0.090070, "geometry": "POINT (-0.090070, 51.511572)" }, "geometry": { "type": "Point", "coordinates": [-0.090070, 51.511572] } },
    { "type": "Feature", "properties": { "name": "Two New Ludgate", "address": "30 Old Bailey, EC4M", "use": "Commercial - Mixed", "year": 2015, "height_metres": 41.50, "status": "Constructed", "architect": "Sauerbruch Hutton Architekten", "lat": 51.514296, "lon": -0.102685, "geometry": "POINT (-0.102685, 51.514296)" }, "geometry": { "type": "Point", "coordinates": [-0.102685, 51.514296] } },
    { "type": "Feature", "properties": { "name": "Plantation Place South", "address": "60 Great Tower Street, EC3", "use": "Commercial - Mixed", "year": 2004, "height_metres": 41.50, "status": "Constructed", "architect": "Arup Associates", "lat": 51.510676, "lon": -0.081959, "geometry": "POINT (-0.081959, 51.510676)" }, "geometry": { "type": "Point", "coordinates": [-0.081959, 51.510676] } },
    { "type": "Feature", "properties": { "name": "Broadwalk House", "address": "5 Appold Street, EC2", "use": "Commercial - Offices", "year": 1990, "height_metres": 41.48, "status": "Constructed", "architect": "Skidmore, Owings & Merrill LLP", "lat": 51.521199, "lon": -0.081295, "geometry": "POINT (-0.081295, 51.521199)" }, "geometry": { "type": "Point", "coordinates": [-0.081295, 51.521199] } },
    { "type": "Feature", "properties": { "name": "One New Ludgate", "address": "60 Ludgate Hill, EC4M", "use": "Commercial - Mixed", "year": 2015, "height_metres": 41.42, "status": "Constructed", "architect": "Fletcher Priest Architects Ltd", "lat": 51.514417, "lon": -0.103214, "geometry": "POINT (-0.103214, 51.514417)" }, "geometry": { "type": "Point", "coordinates": [-0.103214, 51.514417] } },
    { "type": "Feature", "properties": { "name": "12 Arthur Street", "address": "12 Arthur Street, EC4", "use": "Commercial - Offices", "year": 2004, "height_metres": 41.40, "status": "Constructed", "architect": "HKR Chartered Architects UK", "lat": -0.088290, "lon": -0.088290, "geometry": "POINT (-0.088290, 51.510341)" }, "geometry": { "type": "Point", "coordinates": [-0.088290, 51.510341] } },
    { "type": "Feature", "properties": { "name": "One Great St Helen's", "address": "1 Great St. Helen's EC3", "use": "Commercial - Offices", "year": 1998, "height_metres": 41.37, "status": "Constructed", "architect": "Hurley, Robertson and Associates", "lat": 51.514714, "lon": -0.082451, "geometry": "POINT (-0.082451, 51.514714)" }, "geometry": { "type": "Point", "coordinates": [-0.082451, 51.514714] } },
    { "type": "Feature", "properties": { "name": "One Bartholomew", "address": "1 Bartholomew Place, EC1A", "use": "Commercial - Offices", "year": 2018, "height_metres": 41.00, "status": "Constructed", "architect": "Sheppard Robson", "lat": 51.519285, "lon": -0.098210, "geometry": "POINT (-0.098210, 51.519285)" }, "geometry": { "type": "Point", "coordinates": [-0.098210, 51.519285] } },
    { "type": "Feature", "properties": { "name": "25-29 Gresham Street", "address": "25-29 Gresham Street, EC2V", "use": "Commercial - Offices", "year": 2002, "height_metres": 41.00, "status": "Constructed", "architect": "Nicholas Grimshaw & Partners", "lat": 51.516532, "lon": -0.095509, "geometry": "POINT (-0.095509, 51.516532)" }, "geometry": { "type": "Point", "coordinates": [-0.095509, 51.516532] } },
    { "type": "Feature", "properties": { "name": "Bloomberg Place 2", "address": "Cannon Street, EC4", "use": "Commercial - Offices", "year": 2017, "height_metres": 41.00, "status": "Constructed", "architect": "Foster + Partners", "lat": 51.512669, "lon": -0.092012, "geometry": "POINT (-0.092012, 51.512669)" }, "geometry": { "type": "Point", "coordinates": [-0.092012, 51.512669] } },
    { "type": "Feature", "properties": { "name": "Bloomberg Place 1", "address": "Queen Victoria Street/Wallbrook, EC4V", "use": "Commercial - Offices", "year": 2017, "height_metres": 41.00, "status": "Constructed", "architect": "Foster + Partners", "lat": 51.512815, "lon": -0.091507, "geometry": "POINT (-0.091507, 51.512815)" }, "geometry": { "type": "Point", "coordinates": [-0.091507, 51.512815] } },
    { "type": "Feature", "properties": { "name": "30 Gresham Street", "address": "30 Gresham Street, EC2", "use": "Commercial - Mixed", "year": 2003, "height_metres": 41.50, "status": "Constructed", "architect": "Sidell Gibson Partnership LLP", "lat": 51.515207, "lon": -0.092914, "geometry": "POINT (-0.092914, 51.515207)" }, "geometry": { "type": "Point", "coordinates": [-0.092914, 51.515207] } },
    { "type": "Feature", "properties": { "name": "1 Bartholomew Lane", "address": "1 Bartholomew Lane, EC2", "use": "Commercial - Offices", "year": 2010, "height_metres": 40.65, "status": "Constructed", "architect": "Unknown", "lat": 51.514701, "lon": -0.087373, "geometry": "POINT (-0.087373, 51.514701)" }, "geometry": { "type": "Point", "coordinates": [-0.087373, 51.514701] } },
    { "type": "Feature", "properties": { "name": "Garrard House", "address": "31 Gresham Street, EC2", "use": "Commercial - Offices", "year": 1998, "height_metres": 40.53, "status": "Constructed", "architect": "Skidmore, Owings & Merrill LLP", "lat": 51.516160, "lon": -0.094969, "geometry": "POINT (-0.094969, 51.516160)" }, "geometry": { "type": "Point", "coordinates": [-0.094969, 51.516160] } },
    { "type": "Feature", "properties": { "name": "300 Old Broad Street", "address": "33-41 Old Broad Street, EC2", "use": "Commercial - Offices", "year": 1997, "height_metres": 40.50, "status": "Constructed", "architect": "EPR Architects Ltd", "lat": 51.516081, "lon": -0.0835922, "geometry": "POINT (-0.0835922, 51.516081)" }, "geometry": { "type": "Point", "coordinates": [-0.0835922, 51.516081] } },
    { "type": "Feature", "properties": { "name": "100 Wood Street", "address": "100 Wood Street EC2", "use": "Commercial - Offices", "year": 2000, "height_metres": 40.43, "status": "Constructed", "architect": "Foster + Partners", "lat": 51.516420, "lon": -0.094399, "geometry": "POINT (-0.094399, 51.516420)" }, "geometry": { "type": "Point", "coordinates": [-0.094399, 51.516420] } },
    { "type": "Feature", "properties": { "name": "70 Gracechurch Street", "address": "168 Fenchurch Street", "use": "Commercial - Mixed", "year": 2002, "height_metres": 40.20, "status": "Constructed", "architect": "BDP", "lat": 51.512135, "lon": -0.084425, "geometry": "POINT (-0.084425, 51.512135)" }, "geometry": { "type": "Point", "coordinates": [-0.084425, 51.512135] } },
    { "type": "Feature", "properties": { "name": "10 Fleet Place", "address": "10 Fleet Place, EC4", "use": "Commercial - Offices", "year": 1992, "height_metres": 40.06, "status": "Constructed", "architect": "Skidmore, Owings & Merrill LLP", "lat": 51.515257, "lon": -0.103800, "geometry": "POINT (-0.103800, 51.515257)" }, "geometry": { "type": "Point", "coordinates": [-0.103800, 51.515257] } },
    { "type": "Feature", "properties": { "name": "60 London Wall", "address": "60 London Wall, EC2M", "use": "Commercial - Mixed", "year": 1991, "height_metres": 40.00, "status": "Constructed", "architect": "Unknown", "lat": 51.517010, "lon": -0.086965, "geometry": "POINT (-0.086965, 51.517010)" }, "geometry": { "type": "Point", "coordinates": [-0.086965, 51.517010] } },
    { "type": "Feature", "properties": { "name": "Finsbury Circus House", "address": "10 South Place, EC2", "use": "Commercial - Offices", "year": 1991, "height_metres": 40.00, "status": "Constructed", "architect": "GMW Architects", "lat": 51.518774, "lon": -0.086241, "geometry": "POINT (-0.086241, 51.518774)" }, "geometry": { "type": "Point", "coordinates": [-0.086241, 51.518774] } },
    { "type": "Feature", "properties": { "name": "The Monument Building", "address": "11-19 Monument Street, EC3R", "use": "Commercial - Mixed", "year": 2016, "height_metres": 39.70, "status": "Constructed", "architect": "Make Architects", "lat": 51.510423, "lon": -0.085585, "geometry": "POINT (-0.085585, 51.510423)" }, "geometry": { "type": "Point", "coordinates": [-0.085585, 51.510423] } },
    { "type": "Feature", "properties": { "name": "1 Fleet Place", "address": "1 Fleet Place, EC4", "use": "Commercial - Offices", "year": 1992, "height_metres": 39.59, "status": "Constructed", "architect": "Skidmore, Owings & Merrill LLP", "lat": 51.516195, "lon": -0.103537, "geometry": "POINT (-0.103537, 51.516195)" }, "geometry": { "type": "Point", "coordinates": [-0.103537, 51.516195] } },
    { "type": "Feature", "properties": { "name": "One Basinghall Avenue", "address": "1 Basinghall Avenue", "use": "Commercial - Offices", "year": 2007, "height_metres": 39.69, "status": "Constructed", "architect": "Bennetts Associates Architects", "lat": 51.516760, "lon": -0.090935, "geometry": "POINT (-0.090935, 51.516760)" }, "geometry": { "type": "Point", "coordinates": [-0.090935, 51.516760] } },
    { "type": "Feature", "properties": { "name": "100 Cheapside", "address": "100 Cheapside, EC2V", "use": "Commercial - Mixed", "year": 2014, "height_metres": 39.20, "status": "Constructed", "architect": "Michael Aukett Architects Ltd", "lat": 51.514248, "lon": -0.092764, "geometry": "POINT (-0.092764, 51.514248)" }, "geometry": { "type": "Point", "coordinates": [-0.092764, 51.514248] } },
    { "type": "Feature", "properties": { "name": "Woolgate Exchange", "address": "25 Basinghall Street, EC2V", "use": "Commercial - Mixed", "year": 2000, "height_metres": 39.20, "status": "Constructed", "architect": "Sidell Gibson Partnership LLP", "lat": 51.515108, "lon": -0.091755, "geometry": "POINT (-0.091755, 51.515108)" }, "geometry": { "type": "Point", "coordinates": [-0.091755, 51.515108] } },
    { "type": "Feature", "properties": { "name": "SG House", "address": "41 Tower Hill, EC3N", "use": "Commercial - Offices", "year": 1987, "height_metres": 39.00, "status": "Constructed", "architect": "Unknown", "lat": 51.510319, "lon": -0.074545, "geometry": "POINT (-0.074545, 51.510319)" }, "geometry": { "type": "Point", "coordinates": [-0.074545, 51.510319] } },
    { "type": "Feature", "properties": { "name": "150 Cheapside", "address": "150-152 Cheapside, EC2", "use": "Commercial - Mixed", "year": 2008, "height_metres": 38.95, "status": "Constructed", "architect": "Michael Aukett Architects Ltd", "lat": 51.514999, "lon": -0.096755, "geometry": "POINT (-0.096755, 51.514999)" }, "geometry": { "type": "Point", "coordinates": [-0.096755, 51.514999] } },
    { "type": "Feature", "properties": { "name": "Twenty Gresham Street", "address": "20 Gresham Street, EC2", "use": "Commercial - Offices", "year": 2008, "height_metres": 38.88, "status": "Constructed", "architect": "Kohn Pedersen Fox Associates", "lat": 51.515526, "lon": -0.093819, "geometry": "POINT (-0.093819, 51.515526)" }, "geometry": { "type": "Point", "coordinates": [-0.093819, 51.515526] } },
    { "type": "Feature", "properties": { "name": "Premier Place", "address": "2-5 Devonshire Square, EC2", "use": "Commercial - Mixed", "year": 2000, "height_metres": 38.00, "status": "Constructed", "architect": "Bennetts Associates Architects", "lat": 51.516745, "lon": -0.079933, "geometry": "POINT (-0.079933, 51.516745)" }, "geometry": { "type": "Point", "coordinates": [-0.079933, 51.516745] } },
    { "type": "Feature", "properties": { "name": "One Coleman Street", "address": "1 Coleman Street, EC2", "use": "Commercial - Offices", "year": 2005, "height_metres": 37.70, "status": "Constructed", "architect": "Swanke Hayden Connell Architects", "lat": 51.517375, "lon": -0.089977, "geometry": "POINT (-0.089977, 51.517375)" }, "geometry": { "type": "Point", "coordinates": [-0.089977, 51.517375] } },
    { "type": "Feature", "properties": { "name": "One Wood Street", "address": "1-5 Wood Street, EC2", "use": "Commercial - Mixed", "year": 2007, "height_metres": 37.60, "status": "Constructed", "architect": "Fletcher Priest Architects Ltd", "lat": 51.514684, "lon": -0.094401, "geometry": "POINT (-0.094401, 51.514684)" }, "geometry": { "type": "Point", "coordinates": [-0.094401, 51.514684] } },
    { "type": "Feature", "properties": { "name": "The Banking Hall", "address": "8-10 Moorgate, EC2R", "use": "Commercial - Mixed", "year": 2014, "height_metres": 36.77, "status": "Constructed", "architect": "Allies and Morrison Architects", "lat": 51.515658, "lon": -0.088907, "geometry": "POINT (-0.088907, 51.515658)" }, "geometry": { "type": "Point", "coordinates": [-0.088907, 51.515658] } },
    { "type": "Feature", "properties": { "name": "Seal House Redevelopment", "address": "1 Swan Lane, EC4R", "use": "Commercial - Mixed", "year": "Unknown", "height_metres": 36.00, "status": "Planned", "architect": "Eric Parry Architects", "lat": 51.510109, "lon": -0.088139, "geometry": "POINT (-0.088139, 51.510109)" }, "geometry": { "type": "Point", "coordinates": [-0.088139, 51.510109] } },
    { "type": "Feature", "properties": { "name": "40 Holborn Viaduct", "address": "40 Holborn Viaduct, EC1", "use": "Commercial - Mixed", "year": 2008, "height_metres": 35.75, "status": "Constructed", "architect": "Rolfe Judd Limited", "lat": 51.517958, "lon": -0.106473, "geometry": "POINT (-0.106473, 51.517958)" }, "geometry": { "type": "Point", "coordinates": [-0.106473, 51.517958] } },
    { "type": "Feature", "properties": { "name": "40 Gracechurch Street", "address": "36-41 Gracechurch Street, EC3", "use": "Commercial - Mixed", "year": 2010, "height_metres": 35.57, "status": "Constructed", "architect": "Frederick Gibberd Partnership", "lat": 51.511508, "lon": -0.085730, "geometry": "POINT (-0.085730, 51.511508)" }, "geometry": { "type": "Point", "coordinates": [-0.085730, 51.511508] } },
    { "type": "Feature", "properties": { "name": "One Old Jewry", "address": "1-5 Old Jewry, EC2", "use": "Commercial - Mixed", "year": 2008, "height_metres": 35.55, "status": "Constructed", "architect": "Sheppard Robson", "lat": 51.514011, "lon": -0.090828, "geometry": "POINT (-0.090828, 51.514011)" }, "geometry": { "type": "Point", "coordinates": [-0.090828, 51.514011] } },
    { "type": "Feature", "properties": { "name": "110 Fetter Lane", "address": "110 Fetter Lane, EC4A", "use": "Commercial - Mixed", "year": 2010, "height_metres": 35.49, "status": "Constructed", "architect": "Woods Bagot", "lat": 51.516019, "lon": -0.109551, "geometry": "POINT (-0.109551, 51.516019)" }, "geometry": { "type": "Point", "coordinates": [-0.109551, 51.516019] } },
    { "type": "Feature", "properties": { "name": "Atlantic House", "address": "45-50 Holborn Viaduct, EC1", "use": "Commercial - Offices", "year": 2001, "height_metres": 35.36, "status": "Constructed", "architect": "Rolfe Judd Limited", "lat": 51.517966, "lon": -0.106254, "geometry": "POINT (-0.106254, 51.517966)" }, "geometry": { "type": "Point", "coordinates": [-0.106254, 51.517966] } },
    { "type": "Feature", "properties": { "name": "Cheapside 107", "address": "107 Cheapside, EC2", "use": "Commercial - Mixed", "year": 2008, "height_metres": 35.26, "status": "Constructed", "architect": "John Robertson Architects", "lat": 51.514327, "lon": -0.093503, "geometry": "POINT (-0.093503, 51.514327)" }, "geometry": { "type": "Point", "coordinates": [-0.093503, 51.514327] } },
    { "type": "Feature", "properties": { "name": "One New Change", "address": "1 New Change, EC4", "use": "Commercial - Mixed", "year": 2010, "height_metres": 34.43, "status": "Constructed", "architect": "Ateliers Jean Nouvel", "lat": 51.514064, "lon": -0.095496, "geometry": "POINT (-0.095496, 51.514064)" }, "geometry": { "type": "Point", "coordinates": [-0.095496, 51.514064] } },
    { "type": "Feature", "properties": { "name": "Cannon Bridge", "address": "25 Dowgate Hill, EC4", "use": "Commercial - Offices", "year": 1991, "height_metres": 34.00, "status": "Constructed", "architect": "BDP", "lat": 51.510965, "lon": -0.090889, "geometry": "POINT (-0.090889, 51.510965)" }, "geometry": { "type": "Point", "coordinates": [-0.090889, 51.510965] } },
    { "type": "Feature", "properties": { "name": "Aurum", "address": "30-32 Lombard Street, EC3V", "use": "Commercial - Offices", "year": 2019, "height_metres": 33.00, "status": "Constructed", "architect": "TP Bennett LLP", "lat": 51.512213, "lon": -0.086353, "geometry": "POINT (-0.086353, 51.512213)" }, "geometry": { "type": "Point", "coordinates": [-0.086353, 51.512213] } },
    { "type": "Feature", "properties": { "name": "Urbannest Tower Bridge", "address": "52 Minories, EC3N", "use": "Residential", "year": 2012, "height_metres": 33.00, "status": "Constructed", "architect": "Flanagan Lawrence", "lat": 51.511603, "lon": -0.075227, "geometry": "POINT (-0.075227, 51.511603)" }, "geometry": { "type": "Point", "coordinates": [-0.075227, 51.511603] } },
    { "type": "Feature", "properties": { "name": "Tower Suites by Blue Orchid", "address": "100 Minories, EC3N", "use": "Residential - Mixed", "year": 2019, "height_metres": 33.00, "status": "Constructed", "architect": "Buchanan Hartley", "lat": 51.510620, "lon": -0.075273, "geometry": "POINT (-0.075273, 51.510620)" }, "geometry": { "type": "Point", "coordinates": [-0.075273, 51.510620] } },
    { "type": "Feature", "properties": { "name": "One Lothbury", "address": "1 Lothbury, EC2", "use": "Commercial - Offices", "year": 2009, "height_metres": 33.00, "status": "Constructed", "architect": "Fletcher Priest Architects Ltd", "lat": 51.515028, "lon": -0.089431, "geometry": "POINT (-0.089431, 51.515028)" }, "geometry": { "type": "Point", "coordinates": [-0.089431, 51.515028] } },
    { "type": "Feature", "properties": { "name": "citizenM Tower of London", "address": "38-40 Trinity Square, EC3N", "use": "Commercial - Hotel", "year": 2016, "height_metres": 32.00, "status": "Constructed", "architect": "Concrete Amsterdam", "lat": 51.510226, "lon": -0.076632, "geometry": "POINT (-0.076632, 51.510226)" }, "geometry": { "type": "Point", "coordinates": [-0.076632, 51.510226] } },
    { "type": "Feature", "properties": { "name": "Cheval Three Quays", "address": "Lower Thames Street, EC3N", "use": "Residential - Mixed", "year": 2014, "height_metres": 31.00, "status": "Constructed", "architect": "3DReid Limited", "lat": 51.508424, "lon": -0.079626, "geometry": "POINT (-0.079626, 51.508424)" }, "geometry": { "type": "Point", "coordinates": [-0.079626, 51.508424] } },
    { "type": "Feature", "properties": { "name": "26-30 Holborn Viaduct, EC1", "address": "26-30 Holborn Viaduct", "use": "Commercial - Hotel + Retail", "year": "Unknown", "height_metres": 30.00, "status": "Planned", "architect": "Eric Parry Architects", "lat": 51.517388, "lon": -0.105415, "geometry": "POINT (-0.105415, 51.517388)" }, "geometry": { "type": "Point", "coordinates": [-0.105415, 51.517388] } },
    { "type": "Feature", "properties": { "name": "33 Holborn", "address": "33 Holborn, EC1N", "use": "Commercial - Mixed", "year": 2001, "height_metres": 30.00, "status": "Constructed", "architect": "Foster + Partners", "lat": 51.517777, "lon": -0.108265, "geometry": "POINT (-0.108265, 51.517777)" }, "geometry": { "type": "Point", "coordinates": [-0.108265, 51.517777] } },
    { "type": "Feature", "properties": { "name": "60 Queen Victoria Street", "address": "60 Queen Victoria Street, EC4", "use": "Commercial - Offices", "year": 1999, "height_metres": 30.00, "status": "Constructed", "architect": "Foggo Associates", "lat": 51.513092, "lon": -0.091438, "geometry": "POINT (-0.091438, 51.513092)" }, "geometry": { "type": "Point", "coordinates": [-0.091438, 51.513092] } },
    { "type": "Feature", "properties": { "name": "45 Cannon Street", "address": "45 Cannon Street, EC4N", "use": "Commercial - Mixed", "year": 2017, "height_metres": 28.00, "status": "Constructed", "architect": "Fletcher Priest Architects Ltd", "lat": 51.512836, "lon": -0.094304, "geometry": "POINT (-0.094304, 51.512836)" }, "geometry": { "type": "Point", "coordinates": [-0.094304, 51.512836] } },
    { "type": "Feature", "properties": { "name": "10 Gresham Street", "address": "10 Gresham Street, EC2", "use": "Commercial - Offices", "year": 2003, "height_metres": 28.00, "status": "Constructed", "architect": "Foster + Partners", "lat": 51.515370, "lon": -0.094741, "geometry": "POINT (-0.094741, 51.515370)" }, "geometry": { "type": "Point", "coordinates": [-0.094741, 51.515370] } },
    { "type": "Feature", "properties": { "name": "St Dunstan's Court", "address": "133-137 Fetter Lane, EC4A", "use": "Residential + Retail", "year": 2014, "height_metres": 27.00, "status": "Constructed", "architect": "David Walker Architects Ltd", "lat": 51.515082, "lon": -0.110055, "geometry": "POINT (-0.110055, 51.515082)" }, "geometry": { "type": "Point", "coordinates": [-0.110055, 51.515082] } },
    { "type": "Feature", "properties": { "name": "Crowne Plaze London - The City", "address": "19 New Bridge Street, EC4V", "use": "Commercial - Hotel", "year": 2003, "height_metres": 27.00, "status": "Constructed", "architect": "W&M Architects LLP", "lat": 51.512430, "lon": -0.104876, "geometry": "POINT (-0.104876, 51.512430)" }, "geometry": { "type": "Point", "coordinates": [-0.104876, 51.512430] } },
    { "type": "Feature", "properties": { "name": "Bow Bells House", "address": "1 Bread Street, EC4", "use": "Commercial - Mixed", "year": 2007, "height_metres": 26.00, "status": "Constructed", "architect": "David Walker Architects Ltd, HOK", "lat": 51.513774, "lon": -0.094793, "geometry": "POINT (-0.094793, 51.513774)" }, "geometry": { "type": "Point", "coordinates": [-0.094793, 51.513774] } },
    { "type": "Feature", "properties": { "name": "63 St. Mary Axe", "address": "63 St. Mary Axe, EC3A", "use": "Commercial - Offices", "year": 2013, "height_metres": 26.00, "status": "Constructed", "architect": "ESA Architects", "lat": 51.515808, "lon": -0.080037, "geometry": "POINT (-0.080037, 51.515808)" }, "geometry": { "type": "Point", "coordinates": [-0.080037, 51.515808] } },
    { "type": "Feature", "properties": { "name": "40 Chancery Lane", "address": "40-45 Chancery Lane, WC2A", "use": "Commercial - Mixed", "year": 2015, "height_metres": 25.00, "status": "Constructed", "architect": "Bennetts Associates Architects", "lat": 51.516722, "lon": -0.112022, "geometry": "POINT (-0.112022, 51.516722)" }, "geometry": { "type": "Point", "coordinates": [-0.112022, 51.516722] } },
    { "type": "Feature", "properties": { "name": "Carmelite House", "address": "50 Victoria Embankment, EC4Y", "use": "Commercial - Offices", "year": 2014, "height_metres": 23.00, "status": "Constructed", "architect": "Fletcher Priest Architects Ltd", "lat": 51.511401, "lon": -0.107206, "geometry": "POINT (-0.107206, 51.511401)" }, "geometry": { "type": "Point", "coordinates": [-0.107206, 51.511401] } },
    { "type": "Feature", "properties": { "name": "7 Newgate Street", "address": "7 Newgate Street, EC1A", "use": "Commercial - Offices", "year": 2000, "height_metres": 22.00, "status": "Constructed", "architect": "Fitzroy Robinson & Partners", "lat": 51.516091, "lon": -0.101123, "geometry": "POINT (-0.101123, 51.516091)" }, "geometry": { "type": "Point", "coordinates": [-0.101123, 51.516091] } },
    { "type": "Feature", "properties": { "name": "20 Cannon Street", "address": "20 Cannon Street, EC4M", "use": "Commercial - Offices", "year": 2012, "height_metres": 20.00, "status": "Constructed", "architect": "Unknown", "lat": 51.512569, "lon": -0.095465, "geometry": "POINT (-0.095465, 51.512569)" }, "geometry": { "type": "Point", "coordinates": [-0.095465, 51.512569] } },
    { "type": "Feature", "properties": { "name": "Procession House", "address": "55 Ludgate Hill, EC4M", "use": "Commercial - Offices", "year": 1999, "height_metres": 17.00, "status": "Constructed", "architect": "John Robertson Architects", "lat": 51.514086, "lon": -0.102771, "geometry": "POINT (-0.102771, 51.514086)" }, "geometry": { "type": "Point", "coordinates": [-0.102771, 51.514086] } },
    { "type": "Feature", "properties": { "name": "Tower Place West", "address": "Tower Place, EC3R", "use": "Commercial - Mixed", "year": 2003, "height_metres": 22.87, "status": "Constructed", "architect": "YRM Limited", "lat": 51.508805, "lon": -0.079857, "geometry": "POINT (-0.079857, 51.508805)" }, "geometry": { "type": "Point", "coordinates": [-0.079857, 51.508805] } },
    { "type": "Feature", "properties": { "name": "Tower Place East", "address": "Tower Place, EC3R", "use": "Commercial - Offices", "year": 2003, "height_metres": 22.87, "status": "Constructed", "architect": "Foster + Partners", "lat": 51.508773, "lon": -0.079885, "geometry": "POINT (-0.079885, 51.508773)" }, "geometry": { "type": "Point", "coordinates": [-0.079885, 51.508773] } },
    { "type": "Feature", "properties": { "name": "Christ Church Court", "address": "10-15 Newgate Street, EC4", "use": "Commercial - Offices", "year": 2001, "height_metres": 22.87, "status": "Constructed", "architect": "Rolfe Judd Limited", "lat": 51.515436, "lon": -0.100228, "geometry": "POINT (-0.100228, 51.515436)" }, "geometry": { "type": "Point", "coordinates": [-0.100228, 51.515436] } },
    { "type": "Feature", "properties": { "name": "1 Tudor Street", "address": "1 Tudor Street, EC4Y", "use": "Commercial - Offices", "year": 2009, "height_metres": 22.87, "status": "Constructed", "architect": "TP Bennett LLP", "lat": 51.512446, "lon": -0.105165, "geometry": "POINT (-0.105165, 51.512446)" }, "geometry": { "type": "Point", "coordinates": [-0.105165, 51.512446] } },
    { "type": "Feature", "properties": { "name": "Warwick Court", "address": "5 Paternoster Square, EC4M", "use": "Commercial - Offices", "year": 2003, "height_metres": 19.60, "status": "Constructed", "architect": "MacCormac Jamieson Prichard", "lat": 51.514899, "lon": -0.099733, "geometry": "POINT (-0.099733, 51.514899)" }, "geometry": { "type": "Point", "coordinates": [-0.099733, 51.514899] } },
    { "type": "Feature", "properties": { "name": "Whitefriars", "address": "65 Fleet Street, EC4", "use": "Commercial - Offices", "year": 1989, "height_metres": 16.34, "status": "Constructed", "architect": "YRM Limited", "lat": 51.514303, "lon": -0.107723, "geometry": "POINT (-0.107723, 51.514303)" }, "geometry": { "type": "Point", "coordinates": [-0.107723, 51.514303] } },
    { "type": "Feature", "properties": { "name": "Thames Court", "address": "Upper Thames Street, EC4", "use": "Commercial - Offices", "year": 1998, "height_metres": 16.34, "status": "Constructed", "architect": "Kohn Pedersen Fox Associates", "lat": 51.510802, "lon": -0.094572, "geometry": "POINT (-0.094572, 51.510802)" }, "geometry": { "type": "Point", "coordinates": [-0.094572, 51.510802] } },
    { "type": "Feature", "properties": { "name": "Salisbury Square House", "address": "8 Salisbury Square, EC4", "use": "Commercial - Offices", "year": 1989, "height_metres": "Unknown", "status": "Constructed", "architect": "Unknown", "lat": 51.513299, "lon": -0.106303, "geometry": "POINT (-0.106303, 51.513299)" }, "geometry": { "type": "Point", "coordinates": [-0.106303, 51.513299] } },
    { "type": "Feature", "properties": { "name": "King Edward Court", "address": "10 Paternoster Square, EC4M", "use": "Commercial - Offices", "year": 2004, "height_metres": "Unknown", "status": "Constructed", "architect": "Eric Parry Architects", "lat": 51.514957, "lon": -0.098831, "geometry": "POINT (-0.098831, 51.514957)" }, "geometry": { "type": "Point", "coordinates": [-0.098831, 51.514957] } },
    { "type": "Feature", "properties": { "name": "St Martin's Court", "address": "10 Paternoster Row, EC4M", "use": "Commercial - Mixed", "year": "Unknown", "height_metres": "Unknown", "status": "Constructed", "architect": "Allies & Morrison Architects", "lat": 51.515033, "lon": -0.098135, "geometry": "POINT (-0.098135, 51.515033)" }, "geometry": { "type": "Point", "coordinates": [-0.098135, 51.515033] } },
    { "type": "Feature", "properties": { "name": "Juxon House", "address": "98 St Paul's Churchyard, EC4M", "use": "Commercial - Mixed", "year": "Unknown", "height_metres": "Unknown", "status": "Constructed", "architect": "Whitfield Partners + Sidell Gibson Architects", "lat": 51.514342, "lon": -0.099889, "geometry": "POINT (-0.099889, 51.514342)" }, "geometry": { "type": "Point", "coordinates": [-0.099889, 51.514342] } },
    { "type": "Feature", "properties": { "name": "Building Six", "address": "8 Paternoster Square, EC4", "use": "Commercial - Mixed", "year": "Unknown", "height_metres": "Unknown", "status": "Constructed", "architect": "Whitfield Partners + Sheppard Robson Architects", "lat": 51.515044, "lon": -0.099763, "geometry": "POINT (-0.099763, 51.515044)" }, "geometry": { "type": "Point", "coordinates": [-0.099763, 51.515044] } },
    { "type": "Feature", "properties": { "name": "One Paternoster Row", "address": "1 Paternoster Row, EC4M", "use": "Commercial - Mixed", "year": "Unknown", "height_metres": "Unknown", "status": "Constructed", "architect": "Whitfield Partners + Sidell Gibson Architects", "lat": 51.514415, "lon": -0.099486, "geometry": "POINT (-0.099486, 51.514415)" }, "geometry": { "type": "Point", "coordinates": [-0.099486, 51.514415] } },
    { "type": "Feature", "properties": { "name": "Old Spitalfields Market", "address": "16 Commercial Street, E1", "use": "Commercial - Retail", "year": "Unknown", "height_metres": "Unknown", "status": "Constructed", "architect": "Foster + Partners", "lat": 51.519817, "lon": -0.075482, "geometry": "POINT (-0.075482, 51.519817)" }, "geometry": { "type": "Point", "coordinates": [-0.075482, 51.519817] } },
    { "type": "Feature", "properties": { "name": "Bishops Square", "address": "1-10 Bishops Square, E1", "use": "Commercial - Mixed", "year": 2005, "height_metres": 53.95, "status": "Constructed", "architect": "Foster + Partners", "lat": 51.519991, "lon": -0.077320, "geometry": "POINT (-0.077320, 51.519991)" }, "geometry": { "type": "Point", "coordinates": [-0.077320, 51.519991] } },
    { "type": "Feature", "properties": { "name": "250 Bishopsgate", "address": "250 Bishopsgate, EC2", "use": "Commercial - Offices", "year": 2000, "height_metres": 66.14, "status": "Constructed", "architect": "EPR Architects Ltd", "lat": 51.519256, "lon": -0.078905, "geometry": "POINT (-0.078905, 51.519256)" }, "geometry": { "type": "Point", "coordinates": [-0.078905, 51.519256] } },
    { "type": "Feature", "properties": { "name": "No. 1 London Bridge", "address": "1 London Bridge Street, SE1", "use": "Commercial - Offices", "year": 1986, "height_metres": 50.90, "status": "Constructed", "architect": "John S Bonnington Partnership", "lat": 51.506828, "lon": -0.0878145, "geometry": "POINT (-0.0878145, 51.506828)" }, "geometry": { "type": "Point", "coordinates": [-0.0878145, 51.506828] } },
    { "type": "Feature", "properties": { "name": "Cottons Centre", "address": "Cottons Lane, SE1", "use": "Commercial - Offices", "year": 1986, "height_metres": 36.80, "status": "Constructed", "architect": "Unknown", "lat": 51.506180, "lon": -0.084837, "geometry": "POINT (-0.084837, 51.506180)" }, "geometry": { "type": "Point", "coordinates": [-0.084837, 51.506180] } },
    { "type": "Feature", "properties": { "name": "Hay's Galleria", "address": "1 Battle Bridge Ln, SE1", "use": "Commercial - Retail", "year": 1987, "height_metres": "Unknown", "status": "Constructed", "architect": "Twigg Brown Architects", "lat": 51.505818, "lon": -0.083426, "geometry": "POINT (-0.083426, 51.505818)" }, "geometry": { "type": "Point", "coordinates": [-0.083426, 51.505818] } },
    { "type": "Feature", "properties": { "name": "1 More London Place", "address": "1 More London Place, SE1", "use": "Commercial - Offices", "year": 2003, "height_metres": 44.00, "status": "Constructed", "architect": "Foster + Partners", "lat": 51.505544, "lon": -0.081299, "geometry": "POINT (-0.081299, 51.505544)" }, "geometry": { "type": "Point", "coordinates": [-0.081299, 51.505544] } },
    { "type": "Feature", "properties": { "name": "2 More London Riverside", "address": "2 More London Riverside, SE1", "use": "Commercial - Mixed", "year": 2003, "height_metres": 44.00, "status": "Constructed", "architect": "Foster + Partners", "lat": 51.505463, "lon": -0.080475, "geometry": "POINT (-0.080475, 51.505463)" }, "geometry": { "type": "Point", "coordinates": [-0.080475, 51.505463] } },
    { "type": "Feature", "properties": { "name": "3 More London Riverside", "address": "3 More London Riverside, SE1", "use": "Commercial - Offices", "year": 2006, "height_metres": 44.85, "status": "Constructed", "architect": "Foster + Partners", "lat": 51.504194, "lon": -0.079723, "geometry": "POINT (-0.079723, 51.504194)" }, "geometry": { "type": "Point", "coordinates": [-0.079723, 51.504194] } },
    { "type": "Feature", "properties": { "name": "4 More London Riverside", "address": "4 More London Riverside, SE1", "use": "Commercial - Offices", "year": 2006, "height_metres": 44.80, "status": "Constructed", "architect": "Foster + Partners", "lat": 51.504340, "lon": -0.080461, "geometry": "POINT (-0.080461, 51.504340)" }, "geometry": { "type": "Point", "coordinates": [-0.080461, 51.504340] } },
    { "type": "Feature", "properties": { "name": "5A More London Place", "address": "5A More London Riverside, SE1", "use": "Commercial - Restaurant", "year": 2006, "height_metres": "Unknown", "status": "Constructed", "architect": "Jestico + Whiles", "lat": 51.504983, "lon": -0.082671, "geometry": "POINT (-0.082671, 51.504983)" }, "geometry": { "type": "Point", "coordinates": [-0.082671, 51.504983] } },
    { "type": "Feature", "properties": { "name": "Hilton London Tower Bridge", "address": "5 More London Place, SE1", "use": "Commercial - Hotel", "year": 2006, "height_metres": 44.45, "status": "Constructed", "architect": "Jestico + Whiles", "lat": 51.504721, "lon": -0.082567, "geometry": "POINT (-0.082567, 51.504721)" }, "geometry": { "type": "Point", "coordinates": [-0.082567, 51.504721] } },
    { "type": "Feature", "properties": { "name": "6 More London Place", "address": "6 More London Place,SE1", "use": "Commercial - Mixed", "year": 2006, "height_metres": 44.00, "status": "Constructed", "architect": "Foster + Partners", "lat": 51.505466, "lon": -0.083136, "geometry": "POINT (-0.083136, 51.505466)" }, "geometry": { "type": "Point", "coordinates": [-0.083136, 51.505466] } },
    { "type": "Feature", "properties": { "name": "7 More London Riverside", "address": "7 More London Riverside, SE1", "use": "Commercial - Mixed", "year": 2010, "height_metres": 43.98, "status": "Constructed", "architect": "Foster + Partners", "lat": 51.504579, "lon": -0.081139, "geometry": "POINT (-0.081139, 51.504579)" }, "geometry": { "type": "Point", "coordinates": [-0.081139, 51.504579] } },
    { "type": "Feature", "properties": { "name": "Unicorn Theatre", "address": "104 Tooley Street, SE1", "use": "Arts", "year": 2006, "height_metres": "Unknown", "status": "Constructed", "architect": "Keith Williams Architects", "lat": 51.504106, "lon": -0.080684, "geometry": "POINT (-0.080684, 51.504106)" }, "geometry": { "type": "Point", "coordinates": [-0.080684, 51.504106] } },
    { "type": "Feature", "properties": { "name": "City Hall", "address": "The Queen's Walk, SE1", "use": "Municipal + Commercial - Offices", "year": 2002, "height_metres": 45.00, "status": "Constructed", "architect": "Foster + Partners", "lat": 51.505042, "lon": -0.078714, "geometry": "POINT (-0.078714, 51.505042)" }, "geometry": { "type": "Point", "coordinates": [-0.078714, 51.505042] } }
    ]
    }
    